"ride_id","rideable_type","started_at","ended_at","start_station_name","start_station_id","end_station_name","end_station_id","start_lat","start_lng","end_lat","end_lng","member_casual"
"D11A8EB700AAAFF1","electric_bike","2022-03-09 19:16:52","2022-03-09 19:41:26","DuSable Lake Shore Dr & Diversey Pkwy","TA1309000039","Clark St & 9th St (AMLI)","SL-009",41.932540536,-87.636436462,41.870816,-87.631246,"casual"
"4144AB7BA5579525","electric_bike","2022-03-09 09:37:29","2022-03-09 09:45:15","Canal St & Jackson Blvd","13138","Morgan St & Lake St","TA1306000015",41.877484441,-87.639315605,41.8857792524043,-87.6510246098041,"casual"
"A4232DF874DD3BEE","electric_bike","2022-03-19 09:50:57","2022-03-19 09:55:14","","","","",41.8,-87.6,41.8,-87.59,"member"
"38F6ED08F9C3A8EB","classic_bike","2022-03-21 11:56:56","2022-03-21 12:37:43","DuSable Lake Shore Dr & Monroe St","13300","Racine Ave & Belmont Ave","TA1308000019",41.880958,-87.616743,41.939743,-87.658865,"casual"
"5E6CF7EE644F6200","electric_bike","2022-03-02 13:28:43","2022-03-02 13:34:52","","","","",41.8,-87.69,41.81,-87.69,"member"
"F685C4CEDDA9E021","electric_bike","2022-03-22 09:14:16","2022-03-22 09:41:43","Wabash Ave & Cermak Rd","TA1305000001","University Ave & 57th St","KA1503000071",41.8526658333333,-87.6264906666667,41.791478,-87.599861,"casual"
"F5864B171C217F10","classic_bike","2022-03-22 17:46:16","2022-03-22 17:51:36","Wabash Ave & Wacker Pl","TA1307000131","Clinton St & Washington Blvd","WL-012",41.886875,-87.62603,41.88338,-87.64117,"member"
"34FDD7CA08DEE4D0","classic_bike","2022-03-02 09:04:42","2022-03-02 09:19:12","Dearborn Pkwy & Delaware Pl","TA1307000128","LaSalle St & Jackson Blvd","TA1309000004",41.898969,-87.629912,41.878166,-87.631929,"member"
"1876E806958D6AD6","classic_bike","2022-03-10 14:03:08","2022-03-10 14:05:18","Dearborn St & Monroe St","TA1305000006","LaSalle St & Jackson Blvd","TA1309000004",41.881319815,-87.6295209193,41.878166,-87.631929,"member"
"75D1C4F527D01D8B","electric_bike","2022-03-16 19:31:11","2022-03-16 19:33:26","","","Streeter Dr & Grand Ave","13022",41.89,-87.61,41.892278,-87.612043,"casual"
"42311A60D14B7DC4","classic_bike","2022-03-18 08:48:23","2022-03-18 08:52:19","Clarendon Ave & Leland Ave","TA1307000119","Broadway & Wilson - Truman College Vaccination Site","13074",41.967968,-87.650001,41.965221,-87.658139,"member"
"7D5DE31152A52DF1","classic_bike","2022-03-29 16:35:29","2022-03-29 16:42:36","Franklin St & Jackson Blvd","TA1305000025","Michigan Ave & Ida B Wells Dr","TA1305000010",41.8777079559,-87.6353211408,41.876243,-87.624426,"member"
"3DB264D88E7289CB","classic_bike","2022-03-02 06:51:42","2022-03-02 06:55:06","Michigan Ave & Washington St","13001","LaSalle St & Jackson Blvd","TA1309000004",41.8839840647265,-87.6246839761734,41.878166,-87.631929,"member"
"08F64DC2CC2208E8","classic_bike","2022-03-01 17:00:57","2022-03-01 17:23:59","Orleans St & Hubbard St","636","Damen Ave & Cortland St","13133",41.890028,-87.636618,41.915983,-87.677335,"member"
"4778ED805DBA3984","electric_bike","2022-03-14 17:05:17","2022-03-14 17:13:43","Shedd Aquarium","15544","Dusable Harbor","KA1503000064",41.867265,-87.6152966666667,41.886976,-87.612813,"casual"
"657C67B383FC68E2","electric_bike","2022-03-16 15:06:57","2022-03-16 15:57:58","Michigan Ave & Oak St","13042","DuSable Lake Shore Dr & North Blvd","LF-005",41.900899,-87.623675,41.911722,-87.626804,"casual"
"ED874B502CEBFF91","electric_bike","2022-03-20 17:02:11","2022-03-20 17:12:28","Wells St & Huron St","TA1306000012","","",41.894845,-87.6345075,41.89,-87.61,"member"
"A78665B54EBD4914","electric_bike","2022-03-08 08:05:22","2022-03-08 08:14:30","Clinton St & Jackson Blvd","638","Wabash Ave & Wacker Pl","TA1307000131",41.878283143,-87.641356468,41.886875,-87.62603,"member"
"A5C02E76C496AB45","electric_bike","2022-03-27 15:32:13","2022-03-27 15:36:29","","","","",41.79,-87.6,41.8,-87.59,"member"
"C7350CFC7CCE2EF7","classic_bike","2022-03-05 18:25:41","2022-03-05 18:46:17","Loomis St & Lexington St","13332","Loomis St & Lexington St","13332",41.872187,-87.661501,41.872187,-87.661501,"casual"
"33756C84E6B5AF01","classic_bike","2022-03-25 07:27:59","2022-03-25 07:29:14","Kingsbury St & Kinzie St","KA1503000043","Orleans St & Hubbard St","636",41.88917683258,-87.6385057718,41.890028,-87.636618,"member"
"1DE23163302DDA93","electric_bike","2022-03-21 16:08:13","2022-03-21 16:11:19","Michigan Ave & Oak St","13042","Michigan Ave & Oak St","13042",41.9009998333333,-87.6237988333333,41.90096039,-87.62377664,"member"
"8342769FD2A00937","electric_bike","2022-03-16 08:56:21","2022-03-16 09:02:56","Larrabee St & Kingsbury St","TA1306000009","Clinton St & Madison St","TA1305000032",41.897610188,-87.643204689,41.882242,-87.641066,"member"
"59C445CB629461A7","classic_bike","2022-03-01 08:37:55","2022-03-01 09:45:12","Southport Ave & Wellington Ave","TA1307000006","Southport Ave & Wellington Ave","TA1307000006",41.935733,-87.663576,41.935733,-87.663576,"casual"
"6394928F41F41B5C","classic_bike","2022-03-13 18:26:45","2022-03-13 18:31:58","Wabash Ave & 9th St","TA1309000010","Michigan Ave & 14th St","TA1307000124",41.870769,-87.625734,41.864059,-87.623727,"member"
"98D0169BF17D0387","classic_bike","2022-03-01 13:55:47","2022-03-01 14:11:23","Calumet Ave & 18th St","13102","Stetson Ave & South Water St","TA1308000029",41.857611,-87.619407,41.886835,-87.62232,"casual"
"2B5EF9D63B6B8589","electric_bike","2022-03-18 11:03:36","2022-03-18 11:08:16","Franklin St & Adams St (Temp)","TA1309000008","Peoria St & Jackson Blvd","13158",41.8793275,-87.6355381666667,41.8776415962753,-87.6496177911758,"casual"
"3D8A5F0D0150742C","electric_bike","2022-03-28 19:07:06","2022-03-28 19:22:41","Canal St & Monroe St","13056","Milwaukee Ave & Wabansia Ave","13243",41.8816116666667,-87.639695,41.912616,-87.681391,"member"
"785A3F619474C072","classic_bike","2022-03-27 12:54:35","2022-03-27 13:29:35","Sheffield Ave & Wellington Ave","TA1307000052","Burnham Harbor","15545",41.9362534831413,-87.6526620984077,41.856268,-87.613348,"member"
"C0755C32964D4C60","docked_bike","2022-03-25 11:24:39","2022-03-25 11:42:24","Millennium Park","13008","State St & Kinzie St","13050",41.881032,-87.624084,41.889187,-87.627754,"casual"
"5FE00CF018218E43","electric_bike","2022-03-17 11:41:01","2022-03-17 11:52:26","Mies van der Rohe Way & Chicago Ave","13338","LaSalle St & Illinois St","13430",41.8972681666667,-87.6216596666667,41.890762,-87.631697,"casual"
"D1B1A80B1D744CE8","electric_bike","2022-03-23 17:32:08","2022-03-23 17:34:51","Clark St & Elm St","TA1307000039","Clark St & Chicago Ave","13303",41.902752757,-87.63156414,41.89675,-87.63089,"casual"
"231587B7B7A0C547","electric_bike","2022-03-29 08:54:24","2022-03-29 09:03:07","Field Blvd & South Water St","15534","Wabash Ave & Adams St","KA1503000015",41.8865983333333,-87.6174228333333,41.87947235235,-87.6256886059,"member"
"2BDDA75DABDC2E08","classic_bike","2022-03-22 18:49:06","2022-03-22 19:10:50","Daley Center Plaza","TA1306000010","DuSable Lake Shore Dr & Wellington Ave","TA1307000041",41.884241,-87.629634,41.9366884494997,-87.6368290185928,"member"
"24E7AEE23D09EFBF","electric_bike","2022-03-24 16:58:28","2022-03-24 17:03:57","Mies van der Rohe Way & Chestnut St","15529","Cityfront Plaza Dr & Pioneer Ct","13427",41.8988665,-87.6227535,41.890573,-87.622072,"member"
"FCBC9E1C1825ECC8","classic_bike","2022-03-30 18:31:48","2022-03-30 18:36:59","Michigan Ave & 8th St","623","Millennium Park","13008",41.872773,-87.623981,41.8810317,-87.62408432,"member"
"865F7483711FB8D1","electric_bike","2022-03-16 10:34:14","2022-03-16 10:56:34","Sedgwick St & Webster Ave","13191","Honore St & Division St","TA1305000034",41.9220665,-87.6390216666667,41.903119,-87.673935,"casual"
"1680C927942C1317","electric_bike","2022-03-21 13:39:11","2022-03-21 13:42:01","","","","",41.91,-87.64,41.91,-87.64,"member"
"BE3FBC667D79B551","electric_bike","2022-03-04 18:26:26","2022-03-04 18:29:19","","","Sangamon St & Washington Blvd","13409",41.89,-87.65,41.883165,-87.6511,"member"
"DD2A6230A443364F","classic_bike","2022-03-15 11:14:37","2022-03-15 11:20:58","Dearborn St & Erie St","13045","McClurg Ct & Erie St","KA1503000041",41.893992,-87.629318,41.894503,-87.617854,"member"
"ACA4464CEA82B92A","electric_bike","2022-03-09 15:26:06","2022-03-09 15:45:48","Southport Ave & Clybourn Ave","TA1309000030","Broadway & Barry Ave","13137",41.9206476666667,-87.663711,41.9375823160063,-87.6440978050232,"member"
"247DE5C1E530C46E","electric_bike","2022-03-04 17:30:38","2022-03-04 17:39:41","","","","",41.93,-87.7,41.95,-87.71,"member"
"F6C18AEE9CAF61F2","classic_bike","2022-03-29 08:18:02","2022-03-29 08:27:37","Fairbanks Ct & Grand Ave","TA1305000003","Franklin St & Lake St","TA1307000111",41.8918473721099,-87.6205801963806,41.885837,-87.6355,"member"
"7A4B5177D202DEB3","classic_bike","2022-03-28 16:01:26","2022-03-28 16:13:10","Fairfield Ave & Roosevelt Rd","KA1504000102","California Ave & Lake St","15666",41.866624,-87.694521,41.88445395657,-87.6962981368,"casual"
"8E9847B8F483FA3E","classic_bike","2022-03-13 18:30:25","2022-03-13 18:34:37","Ellis Ave & 60th St","KA1503000014","University Ave & 57th St","KA1503000071",41.78509714636,-87.6010727606,41.791478,-87.599861,"member"
"CBAB42C50B2BDC2F","classic_bike","2022-03-17 20:12:12","2022-03-17 20:21:06","Racine Ave & Fullerton Ave","TA1306000026","Southport Ave & Roscoe St","13071",41.92556258,-87.65840426,41.943739,-87.66402,"member"
"4DDACC39CFC2DDD0","classic_bike","2022-03-14 12:49:06","2022-03-14 12:56:32","Wabash Ave & Grand Ave","TA1307000117","Sedgwick St & Huron St","TA1307000062",41.891466,-87.626761,41.894666,-87.638437,"member"
"1204F709AF92FC17","electric_bike","2022-03-14 18:18:35","2022-03-14 18:21:05","Kingsbury St & Kinzie St","KA1503000043","","",41.8892095,-87.6386326666667,41.89,-87.65,"member"
"2BE1DD458A3F7A6D","electric_bike","2022-03-09 19:26:42","2022-03-09 19:32:43","Winthrop Ave & Lawrence Ave","TA1308000021","Clark St & Winnemac Ave","TA1309000035",41.9688035,-87.6575853333333,41.973347640473,-87.6678554713726,"casual"
"4327BF4A0A15D58A","electric_bike","2022-03-15 15:52:21","2022-03-15 16:07:17","California Ave & 21st St","13096","","",41.8537645,-87.6957826666667,41.87,-87.65,"member"
"6B22BDA1D50DA7D8","electric_bike","2022-03-29 14:09:34","2022-03-29 14:11:18","","","Clarendon Ave & Gordon Ter","13379",41.95,-87.65,41.9578665241517,-87.6495051383972,"member"
"F07066428F1A50E4","electric_bike","2022-03-11 12:47:53","2022-03-11 12:50:36","","","","",41.77,-87.58,41.77,-87.58,"member"
"D075D4606D2E346B","electric_bike","2022-03-21 16:55:09","2022-03-21 18:36:11","Clark St & Lunt Ave","KA1504000162","","",42.0090635,-87.6743198333333,42.05,-87.68,"casual"
"35EA3A776EF8AD0F","classic_bike","2022-03-04 10:58:55","2022-03-04 11:01:35","Emerald Ave & 28th St","TA1307000153","Emerald Ave & 31st St","TA1309000055",41.84358,-87.645368,41.838198,-87.645143,"member"
"530FB94B42EF22EA","classic_bike","2022-03-14 16:20:56","2022-03-14 16:28:06","St. Clair St & Erie St","13016","Clark St & Schiller St","TA1309000024",41.8943451374243,-87.6227983832359,41.907993,-87.631501,"member"
"320ED108DDD89618","electric_bike","2022-03-17 16:20:20","2022-03-17 16:40:12","Canal St & Adams St","13011","Halsted St & Dickens Ave","13192",41.8796011666667,-87.6401868333333,41.919936,-87.64883,"casual"
"29E5C61EE3F961D7","classic_bike","2022-03-16 18:18:25","2022-03-16 19:20:00","Wells St & Concord Ln","TA1308000050","Clark St & Lincoln Ave","13179",41.912133,-87.634656,41.915689,-87.6346,"casual"
"F0EB4A59002F14BA","electric_bike","2022-03-10 11:27:30","2022-03-10 11:50:36","Wilton Ave & Diversey Pkwy","TA1306000014","Shedd Aquarium","15544",41.9325081666667,-87.6526886666667,41.86722595682,-87.6153553902,"member"
"B7ECAB52193B7C22","classic_bike","2022-03-13 16:23:04","2022-03-13 16:26:08","Leavitt St & Addison St","KA1504000143","Western Ave & Roscoe St","15634",41.946655,-87.683359,41.943034,-87.687288,"member"
"30BAABD1D914F067","electric_bike","2022-03-15 15:12:09","2022-03-15 15:15:15","Orleans St & Merchandise Mart Plaza","TA1305000022","Clinton St & Jackson Blvd","638",41.8876163333333,-87.636505,41.8783166118307,-87.6409810781479,"member"
"D3EAFC2E4780BE8A","electric_bike","2022-03-28 04:52:07","2022-03-28 05:01:32","Millennium Park","13008","Clark St & Elm St","TA1307000039",41.881193,-87.6239643333333,41.902973,-87.63128,"member"
"F84E550761E997A6","classic_bike","2022-03-15 15:17:37","2022-03-15 15:39:26","Broadway & Waveland Ave","13325","Clark St & Bryn Mawr Ave","KA1504000151",41.949074,-87.648636,41.983593,-87.669154,"casual"
"0F369C84CA6C15DC","classic_bike","2022-03-02 18:45:51","2022-03-02 18:57:36","Damen Ave & Pierce Ave","TA1305000041","Wood St & Milwaukee Ave","13221",41.9093960065,-87.6776919292,41.907655,-87.672552,"casual"
"8AE26A44BC2DF14A","electric_bike","2022-03-22 06:30:05","2022-03-22 06:34:53","","","Kedzie Ave & Milwaukee Ave","13085",41.92,-87.72,41.929567,-87.707857,"member"
"A80E567CE04DB58F","classic_bike","2022-03-20 15:59:54","2022-03-20 16:27:55","DuSable Lake Shore Dr & Monroe St","13300","Clark St & Armitage Ave","13146",41.880958,-87.616743,41.918306,-87.636282,"casual"
"8BDE42C9AA1CBD39","electric_bike","2022-03-11 16:42:17","2022-03-11 17:01:00","Mies van der Rohe Way & Chestnut St","15529","Halsted St & Dickens Ave","13192",41.898302,-87.6223408333333,41.919936,-87.64883,"member"
"6BC1BB009FD7A228","classic_bike","2022-03-05 12:56:07","2022-03-05 13:00:19","Damen Ave & Grand Ave","TA1308000006","Ashland Ave & Grand Ave","13434",41.8912643464815,-87.676842212677,41.891072,-87.666611,"member"
"E79E76F3A7FB14E1","classic_bike","2022-03-17 07:21:20","2022-03-17 07:26:00","Wabash Ave & 16th St","SL-012","Wabash Ave & Cermak Rd","TA1305000001",41.860384,-87.625813,41.852619,-87.626488,"member"
"E78CCEEB9FE495D0","electric_bike","2022-03-27 08:50:29","2022-03-27 08:53:34","Canal St & Monroe St","13056","Franklin St & Lake St","TA1307000111",41.8816196666667,-87.6394681666667,41.885837,-87.6355,"casual"
"EC83A2754303DF6D","electric_bike","2022-03-02 12:23:28","2022-03-02 12:23:33","Ogden Ave & Race Ave","13194","Ogden Ave & Race Ave","13194",41.891799688,-87.658779025,41.891795,-87.658751,"member"
"7092F6C88F7D0D94","electric_bike","2022-03-14 19:18:37","2022-03-14 19:21:26","Peoria St & Jackson Blvd","13158","Aberdeen St & Jackson Blvd","13157",41.8775721666667,-87.6493508333333,41.87772613,-87.65478743,"member"
"EEE18A026A5AD09E","electric_bike","2022-03-29 08:42:03","2022-03-29 08:49:04","Loomis St & Jackson Blvd","13206","Franklin St & Monroe St","TA1309000007",41.877896,-87.6620121666667,41.880317,-87.635185,"casual"
"5EDCC75E2CF85785","electric_bike","2022-03-26 13:43:44","2022-03-26 13:49:37","","","Clark St & Winnemac Ave","TA1309000035",41.96,-87.66,41.973347640473,-87.6678554713726,"member"
"871528CDA3F716C7","electric_bike","2022-03-16 19:12:18","2022-03-16 19:20:09","Kingsbury St & Kinzie St","KA1503000043","Ada St & Washington Blvd","13353",41.889142,-87.6384056666667,41.88283,-87.661206,"member"
"F6D30A04E71E01D0","electric_bike","2022-03-25 17:49:25","2022-03-25 17:58:21","LaSalle St & Illinois St","13430","Ashland Ave & Lake St","13073",41.890735984,-87.631677985,41.88592,-87.66717,"member"
"13476CA23B45CB84","electric_bike","2022-03-29 22:09:52","2022-03-29 22:15:28","Aberdeen St & Monroe St","13156","Loomis St & Lexington St","13332",41.880495,-87.655562,41.872187,-87.661501,"member"
"505C7112CEFA333D","docked_bike","2022-03-13 14:43:52","2022-03-13 15:33:43","Streeter Dr & Grand Ave","13022","Green St & Madison St","TA1307000120",41.892278,-87.612043,41.881892,-87.648789,"casual"
"92077987111A1C09","electric_bike","2022-03-23 21:51:10","2022-03-23 21:57:58","Morgan St & 18th St","13163","","",41.8580805,-87.6511423333333,41.85,-87.64,"casual"
"F80C2F1D989A2FAB","classic_bike","2022-03-14 19:08:11","2022-03-14 19:51:31","Burnham Harbor","15545","South Shore Dr & 74th St","KA1503000020",41.856268,-87.613348,41.76218896038,-87.55927465,"member"
"63ECD3D2D37A50D5","electric_bike","2022-03-03 16:54:46","2022-03-03 17:27:39","","","","",41.97,-87.71,41.96,-87.71,"member"
"97E01A2BE8BFD3BB","classic_bike","2022-03-13 15:17:17","2022-03-13 15:26:39","Clark St & Wellington Ave","TA1307000136","Wilton Ave & Belmont Ave","TA1307000134",41.9364968219,-87.6475386582,41.94018,-87.65304,"casual"
"8C0D654732106C94","electric_bike","2022-03-31 18:29:53","2022-03-31 18:36:31","Benson Ave & Church St","596","Evanston Civic Center","661",42.0482226666667,-87.683519,42.057044,-87.686554,"member"
"E5D94727510CD3AF","electric_bike","2022-03-21 18:23:19","2022-03-21 18:29:59","Ashland Ave & Lake St","13073","Clinton St & Washington Blvd","WL-012",41.885958,-87.6671753333333,41.88338,-87.64117,"member"
"B14B5B581DA936D3","electric_bike","2022-03-17 12:21:50","2022-03-17 12:28:11","Broadway & Sheridan Rd","13323","Racine Ave & Belmont Ave","TA1308000019",41.9528541666667,-87.6500991666667,41.939743,-87.658865,"member"
"03BB8945AC2FBEF8","classic_bike","2022-03-23 18:57:07","2022-03-23 19:01:28","Wilton Ave & Belmont Ave","TA1307000134","Southport Ave & Roscoe St","13071",41.94018,-87.65304,41.943739,-87.66402,"casual"
"746929EF78F13CE7","classic_bike","2022-03-17 10:45:34","2022-03-17 10:53:39","Ashland Ave & Wellington Ave","13269","Wilton Ave & Belmont Ave","TA1307000134",41.936083,-87.669807,41.94018,-87.65304,"member"
"9F85BD72EAA4522E","classic_bike","2022-03-17 17:22:37","2022-03-17 17:43:37","Ravenswood Ave & Irving Park Rd","TA1307000149","Kedzie Ave & Palmer Ct","13292",41.95469,-87.67393,41.921525,-87.707322,"member"
"20D80BD945D1EA70","electric_bike","2022-03-19 19:28:07","2022-03-19 19:57:07","","","Christiana Ave & Lawrence Ave","15615",41.93,-87.71,41.96835449363,-87.7118306675,"casual"
"EECD7527377C2E3A","classic_bike","2022-03-25 10:34:26","2022-03-25 10:42:50","LaSalle Dr & Huron St","KP1705001026","Clinton St & Madison St","TA1305000032",41.894877,-87.632326,41.882242,-87.641066,"member"
"43497DC7F5AFAA2A","classic_bike","2022-03-22 09:10:24","2022-03-22 09:14:14","Millennium Park","13008","Dearborn St & Monroe St","TA1305000006",41.8810317,-87.62408432,41.881319815,-87.6295209193,"member"
"EBCA50DB1B69CAE2","electric_bike","2022-03-18 23:25:58","2022-03-18 23:37:28","","","Campbell Ave & North Ave","13257",41.91,-87.65,41.910535,-87.689556,"casual"
"832EF855A9DEEAF3","electric_bike","2022-03-17 15:04:19","2022-03-17 15:15:20","LaSalle St & Jackson Blvd","TA1309000004","Mies van der Rohe Way & Chestnut St","15529",41.87778306,-87.631814361,41.8985866514,-87.6219152258,"member"
"C32DA25FDCF554C3","electric_bike","2022-03-17 14:39:42","2022-03-17 14:52:57","Wells St & Concord Ln","TA1308000050","McClurg Ct & Ohio St","TA1306000029",41.91214,-87.6346231666667,41.8925921197097,-87.6172891259193,"member"
"344072D89723FB0B","electric_bike","2022-03-10 14:37:35","2022-03-10 14:46:56","Franklin St & Lake St","TA1307000111","Ashland Ave & Grand Ave","13434",41.885830045,-87.635281563,41.891072,-87.666611,"member"
"A3978FDBBAE526CF","electric_bike","2022-03-13 17:17:26","2022-03-13 17:52:30","Franklin St & Monroe St","TA1309000007","Michigan Ave & Jackson Blvd","TA1309000002",41.8806631666667,-87.6356413333333,41.87785,-87.62408,"casual"
"5A9340A6AFD48971","classic_bike","2022-03-19 16:11:27","2022-03-19 16:22:23","Lincoln Ave & Fullerton Ave","TA1309000058","Ashland Ave & Wellington Ave","13269",41.9241610290676,-87.6463803648949,41.936083,-87.669807,"member"
"B9F4FCFB425565EF","electric_bike","2022-03-01 13:00:42","2022-03-01 13:22:04","Federal St & Polk St","SL-008","Federal St & Polk St","SL-008",41.872067213,-87.629585266,41.87207763285,-87.6295437729,"casual"
"B34ED3A5AFDE4FF0","classic_bike","2022-03-05 11:46:24","2022-03-05 12:14:54","Shore Dr & 55th St","TA1308000009","Dorchester Ave & 49th St","KA1503000069",41.795212,-87.580715,41.805772,-87.592464,"casual"
"2F49B4413080539A","classic_bike","2022-03-02 08:42:06","2022-03-02 09:02:39","Halsted St & Clybourn Ave","331","McClurg Ct & Erie St","KA1503000041",41.909668,-87.648128,41.894503,-87.617854,"member"
"55AAEC1828FE556A","electric_bike","2022-03-31 18:28:31","2022-03-31 18:32:23","Lake Park Ave & 53rd St","KA1503000059","Woodlawn Ave & 55th St","TA1307000164",41.799498558,-87.586119413,41.795264,-87.596471,"member"
"D20F08B192915651","classic_bike","2022-03-16 19:01:08","2022-03-16 19:15:35","Lakefront Trail & Bryn Mawr Ave","15576","Clarendon Ave & Junior Ter","13389",41.9840441151921,-87.6522812247276,41.961004,-87.649603,"member"
"4760CF6DEB57126F","electric_bike","2022-03-20 15:14:52","2022-03-20 15:34:09","Bissell St & Armitage Ave","13059","","",41.917807102,-87.651979566,41.89,-87.62,"member"
"296682495FBF153F","classic_bike","2022-03-01 07:01:45","2022-03-01 07:06:12","LaSalle Dr & Huron St","KP1705001026","Orleans St & Hubbard St","636",41.894877,-87.632326,41.890028,-87.636618,"casual"
"162C2A7EF60550CA","electric_bike","2022-03-21 10:49:38","2022-03-21 11:02:33","Rush St & Superior St","15530","Elston Ave & Cortland St","TA1305000039",41.895815253,-87.626118898,41.9164334291265,-87.6667463779449,"member"
"021614888CE45A91","electric_bike","2022-03-30 16:57:43","2022-03-30 17:09:15","","","","",41.97,-87.66,41.98,-87.67,"member"
"FBE7256D54699CA3","electric_bike","2022-03-04 14:07:29","2022-03-04 14:44:24","Wells St & Huron St","TA1306000012","Clark St & Berwyn Ave","KA1504000146",41.894864,-87.6344211666667,41.9780306224866,-87.668564915657,"member"
"9775C8E7D2497ED0","electric_bike","2022-03-05 14:47:02","2022-03-05 14:53:34","Komensky Ave & 31st St","335.0","","",41.84,-87.73,41.85,-87.72,"casual"
"258AA0E534B120D4","electric_bike","2022-03-05 11:19:47","2022-03-05 11:31:27","","","","",42,-87.7,42.01,-87.7,"member"
"5806D90223DB3A55","classic_bike","2022-03-20 08:04:40","2022-03-20 08:08:53","LaSalle St & Illinois St","13430","Daley Center Plaza","TA1306000010",41.890762,-87.631697,41.884241,-87.629634,"member"
"3FB395819CB75C69","classic_bike","2022-03-05 13:15:18","2022-03-05 13:26:49","Sedgwick St & Huron St","TA1307000062","McClurg Ct & Erie St","KA1503000041",41.894666,-87.638437,41.894503,-87.617854,"casual"
"379287FF650CC978","electric_bike","2022-03-02 17:10:36","2022-03-02 17:49:03","","","","",41.93,-87.79,41.93,-87.79,"casual"
"6F714C4F08340AD2","electric_bike","2022-03-25 10:33:43","2022-03-25 10:37:32","","","","",41.79,-87.6,41.79,-87.6,"member"
"9441657E8AE8ABDD","electric_bike","2022-03-14 13:17:58","2022-03-14 13:21:00","","","Southport Ave & Irving Park Rd","TA1309000043",41.95,-87.66,41.954177,-87.664358,"member"
"1EF61BB5D5926D94","classic_bike","2022-03-15 17:02:27","2022-03-15 17:11:17","University Ave & 57th St","KA1503000071","Blackstone Ave & Hyde Park Blvd","13398",41.791478,-87.599861,41.802562,-87.590368,"member"
"0D489457EF34DF5E","classic_bike","2022-03-18 11:05:26","2022-03-18 11:21:22","Halsted St & Clybourn Ave","331","LaSalle St & Jackson Blvd","TA1309000004",41.909668,-87.648128,41.878166,-87.631929,"member"
"36E460E4265D61BB","classic_bike","2022-03-06 11:47:55","2022-03-06 12:09:31","State St & Kinzie St","13050","Lakeview Ave & Fullerton Pkwy","TA1309000019",41.889187,-87.627754,41.925858,-87.638973,"member"
"9161F7C8B8037701","classic_bike","2022-03-08 11:26:25","2022-03-08 11:39:40","Noble St & Milwaukee Ave","13290","Aberdeen St & Jackson Blvd","13157",41.90068,-87.6626,41.87772613,-87.65478743,"member"
"655FFAB762620B98","classic_bike","2022-03-19 14:09:03","2022-03-19 14:36:56","Sedgwick St & North Ave","TA1307000038","Michigan Ave & Pearson St","13034",41.911386,-87.638677,41.89766,-87.62351,"casual"
"A80691E1ADD19EB3","electric_bike","2022-03-24 14:48:17","2022-03-24 14:56:27","Clark St & Winnemac Ave","TA1309000035","Western Ave & Leland Ave","TA1307000140",41.9734105,-87.667868,41.966399801841,-87.6887042820454,"member"
"7543C8D6EE25466D","classic_bike","2022-03-16 10:27:33","2022-03-16 10:37:55","Clark St & Randolph St","TA1305000030","Clark St & Elm St","TA1307000039",41.884576228,-87.63188991,41.902973,-87.63128,"member"
"8B60B4725C64A146","classic_bike","2022-03-05 17:56:30","2022-03-05 18:13:17","Lakeview Ave & Fullerton Pkwy","TA1309000019","Clark St & Newport St","632",41.925858,-87.638973,41.94454,-87.654678,"casual"
"E0E34B55E4DB84A8","classic_bike","2022-03-31 13:43:00","2022-03-31 13:49:14","Wells St & Polk St","SL-011","Wabash Ave & Roosevelt Rd","TA1305000002",41.872596,-87.633502,41.867227,-87.625961,"member"
"54B716FB5427AAEC","classic_bike","2022-03-11 12:25:49","2022-03-11 12:30:11","Wood St & Chicago Ave","637","Eckhart Park","13289",41.895634,-87.672069,41.89637337,-87.66098386,"member"
"8D416E3E112A1FE3","electric_bike","2022-03-21 18:54:25","2022-03-21 20:31:47","Field Blvd & South Water St","15534","Dusable Harbor","KA1503000064",41.8852951666667,-87.61716,41.886976,-87.612813,"casual"
"9EC8710EDEA87C7D","electric_bike","2022-03-24 08:45:23","2022-03-24 08:50:39","Clinton St & Lake St","13021","Elizabeth (May) St & Fulton St","13197",41.8853666666667,-87.6419996666667,41.8866164860277,-87.6580399274826,"casual"
"99BA258152A36AAA","electric_bike","2022-03-14 18:09:27","2022-03-14 18:12:01","","","","",41.96,-87.65,41.96,-87.65,"member"
"880EE1636DCB80DE","classic_bike","2022-03-05 15:10:31","2022-03-05 15:18:51","Broadway & Berwyn Ave","13109","Clark St & Bryn Mawr Ave","KA1504000151",41.978353,-87.659753,41.983593,-87.669154,"member"
"7C84FEF12840641F","classic_bike","2022-03-14 18:03:34","2022-03-14 18:30:59","Desplaines St & Randolph St","15535","Desplaines St & Randolph St","15535",41.88461618962,-87.6445705849,41.88461618962,-87.6445705849,"casual"
"1D90384AC7C797D6","classic_bike","2022-03-20 21:24:11","2022-03-20 21:26:26","Sedgwick St & Webster Ave","13191","Larrabee St & Webster Ave","13193",41.922167,-87.638888,41.921822,-87.64414,"member"
"790E1F44DA112D27","electric_bike","2022-03-30 16:55:15","2022-03-30 17:05:20","","","Rush St & Cedar St","KA1504000133",41.93,-87.63,41.90230870122,-87.627690528,"member"
"333FF5FD6409B465","classic_bike","2022-03-16 17:14:50","2022-03-16 18:08:26","Dusable Harbor","KA1503000064","Lincoln Ave & Winona St","KA1504000078",41.886976,-87.612813,41.97491129677,-87.6925025594,"member"
"31E4CC1AF6D1411A","electric_bike","2022-03-14 15:26:40","2022-03-14 15:51:14","Field Museum","13029","Canal St & Monroe St","13056",41.8653146666667,-87.617851,41.88169,-87.63953,"casual"
"7D206EB045C705B1","classic_bike","2022-03-27 10:41:09","2022-03-27 10:46:36","State St & 29th St","13213","State St & 35th St","TA1307000129",41.841707,-87.626938,41.8310363140161,-87.6267975568771,"member"
"B56727D42114602E","electric_bike","2022-03-01 15:23:41","2022-03-01 15:25:16","Wells St & Elm St","KA1504000135","Wells St & Walton St","TA1306000011",41.9029773333333,-87.6346293333333,41.89993001,-87.63443007,"member"
"AFFCE47C42F57F5B","electric_bike","2022-03-23 07:29:14","2022-03-23 07:34:51","Seeley Ave & Roscoe St","13144","","",41.9433626666667,-87.6796758333333,41.95,-87.66,"casual"
"D76E33C2E5F38AFB","classic_bike","2022-03-05 08:08:54","2022-03-05 08:31:34","Marine Dr & Ainslie St","KA1504000171","Theater on the Lake","TA1308000001",41.9716,-87.650154,41.926277,-87.630834,"casual"
"7251B1680B10F914","electric_bike","2022-03-09 16:27:39","2022-03-09 16:38:53","LaSalle St & Illinois St","13430","Clark St & 9th St (AMLI)","SL-009",41.8905155,-87.6313551666667,41.870816,-87.631246,"member"
"937BDEEC448C24BA","classic_bike","2022-03-06 20:02:25","2022-03-06 20:18:04","McClurg Ct & Ohio St","TA1306000029","Fairbanks Ct & Grand Ave","TA1305000003",41.8925921197097,-87.6172891259193,41.8918473721099,-87.6205801963806,"member"
"EB40C1C1BCA6763A","classic_bike","2022-03-21 08:59:03","2022-03-21 09:12:46","Wells St & Evergreen Ave","TA1308000049","LaSalle St & Adams St","KA1503000034",41.906724,-87.63483,41.87934437346,-87.6319852213,"member"
"C6636BC1D0478EA6","classic_bike","2022-03-06 01:40:51","2022-03-06 01:48:27","Damen Ave & Thomas St (Augusta Blvd)","TA1307000070","California Ave & Cortez St","17660",41.901315,-87.677409,41.900363,-87.696704,"member"
"77FCEC932A21C589","classic_bike","2022-03-10 17:11:57","2022-03-10 17:17:27","Desplaines St & Kinzie St","TA1306000003","Wacker Dr & Washington St","KA1503000072",41.888716036,-87.6444478533,41.8831433643902,-87.6372420787811,"member"
"EC46B8F988B645F7","classic_bike","2022-03-03 07:15:18","2022-03-03 07:24:08","Wabash Ave & 16th St","SL-012","Canal St & Jackson Blvd","13138",41.860384,-87.625813,41.877245,-87.639366,"member"
"6DF56BBC4AAC9B93","electric_bike","2022-03-31 18:55:29","2022-03-31 18:59:29","","","","",41.91,-87.7,41.91,-87.7,"member"
"B87EAA48B69E0E31","classic_bike","2022-03-15 11:59:52","2022-03-15 12:45:20","Troy St & North Ave","15653","Desplaines St & Kinzie St","TA1306000003",41.90976930169,-87.7052804871,41.888716036,-87.6444478533,"member"
"6D2A8E3204D4C70B","classic_bike","2022-03-09 14:07:08","2022-03-09 15:38:41","Canal St & Madison St","13341","Franklin St & Illinois St","RN-",41.882091,-87.639833,41.8910233102519,-87.6354798674583,"casual"
"5A699BE6A319D228","classic_bike","2022-03-05 14:00:38","2022-03-05 14:53:54","Lakeview Ave & Fullerton Pkwy","TA1309000019","Millennium Park","13008",41.925858,-87.638973,41.8810317,-87.62408432,"casual"
"227852A76149825E","classic_bike","2022-03-21 14:22:11","2022-03-21 14:37:57","Western Ave & Granville Ave","KA1504000129","Broadway & Thorndale Ave","15575",41.99416136902,-87.689438282,41.98974251144,-87.6601406209,"casual"
"DEE7992EBEA6394F","electric_bike","2022-03-06 12:31:30","2022-03-06 12:34:30","","","","",41.79,-87.6,41.79,-87.6,"member"
"0C2194DEF496126C","classic_bike","2022-03-20 15:45:44","2022-03-20 15:53:28","Pine Grove Ave & Irving Park Rd","TA1308000022","Broadway & Belmont Ave","13277",41.954383,-87.648043,41.940106,-87.645451,"member"
"C9A2E4F6A97DA8C0","electric_bike","2022-03-29 18:48:20","2022-03-29 19:03:40","Lincoln Ave & Belmont Ave","TA1309000042","Lincoln Ave & Belmont Ave","TA1309000042",41.9393748333333,-87.6681931666667,41.939365,-87.668385,"member"
"E40FD99247224A23","classic_bike","2022-03-09 15:43:24","2022-03-09 15:45:41","Clark St & Drummond Pl","TA1307000142","Clark St & Wrightwood Ave","TA1305000014",41.931248,-87.644336,41.929546,-87.643118,"casual"
"6712B794615ED1BD","electric_bike","2022-03-19 02:20:27","2022-03-19 02:27:21","Clark St & Lake St","KA1503000012","","",41.8861156666667,-87.6309348333333,41.88,-87.65,"member"
"D10A8601CCA95121","classic_bike","2022-03-22 05:38:59","2022-03-22 05:42:31","Aberdeen St & Jackson Blvd","13157","Green St & Randolph St","13053",41.87772613,-87.65478743,41.8831813059739,-87.6487246155739,"member"
"BCC81A439D6A9659","classic_bike","2022-03-05 11:41:41","2022-03-05 11:41:45","State St & 33rd St","13216","State St & 33rd St","13216",41.834734,-87.625813,41.834734,-87.625813,"member"
"816BD264965AAA62","classic_bike","2022-03-25 13:27:46","2022-03-25 13:34:30","Larrabee St & Division St","KA1504000079","Clark St & Schiller St","TA1309000024",41.90348607004,-87.6433534936,41.907993,-87.631501,"member"
"7D4DB8FA6E072A7D","electric_bike","2022-03-23 15:10:30","2022-03-23 15:18:08","Rush St & Superior St","15530","Wells St & Evergreen Ave","TA1308000049",41.8949026666667,-87.6258458333333,41.906724,-87.63483,"member"
"AAF62DA796E82BCC","classic_bike","2022-03-17 17:37:10","2022-03-17 18:04:51","State St & Van Buren St","TA1305000035","Sheffield Ave & Willow St","TA1306000032",41.877181,-87.627844,41.913688,-87.652855,"member"
"87C58B02EE7F90C1","electric_bike","2022-03-15 14:20:35","2022-03-15 14:20:48","","","","",41.91,-87.66,41.91,-87.66,"casual"
"B03EC302B085B07C","classic_bike","2022-03-14 22:17:05","2022-03-14 22:30:31","Dayton St & North Ave","13058","Wilton Ave & Belmont Ave","TA1307000134",41.9105780349,-87.6494219288,41.94018,-87.65304,"member"
"CA488C97B2C2A098","classic_bike","2022-03-17 18:36:39","2022-03-17 18:39:18","Clark St & Randolph St","TA1305000030","Wacker Dr & Washington St","KA1503000072",41.884576228,-87.63188991,41.8831433643902,-87.6372420787811,"member"
"92E5E38EA20712C5","electric_bike","2022-03-13 17:42:41","2022-03-13 17:51:42","Lincoln Ave & Fullerton Ave","TA1309000058","Wells St & Elm St","KA1504000135",41.924194,-87.646383,41.903222,-87.634324,"member"
"D27FA1C026A55331","electric_bike","2022-03-10 07:39:34","2022-03-10 07:49:02","Mies van der Rohe Way & Chestnut St","15529","LaSalle St & Jackson Blvd","TA1309000004",41.898379922,-87.621935248,41.878166,-87.631929,"member"
"09E02CE379DD7046","electric_bike","2022-03-20 15:49:24","2022-03-20 15:52:10","Pine Grove Ave & Waveland Ave","TA1307000150","Halsted St & Roscoe St","TA1309000025",41.9492576666667,-87.6463658333333,41.94367,-87.64895,"member"
"FF7C39A204CB53E6","electric_bike","2022-03-20 17:07:48","2022-03-20 17:08:33","","","","",41.95,-87.75,41.95,-87.75,"casual"
"6C9BDA8F8EB3856D","electric_bike","2022-03-20 18:04:25","2022-03-20 18:19:33","Sedgwick St & Webster Ave","13191","Ashland Ave & Blackhawk St","13224",41.9221475,-87.6388876666667,41.907066,-87.667252,"casual"
"CB7C9BDB8CEA9999","classic_bike","2022-03-23 09:05:44","2022-03-23 09:10:47","State St & Van Buren St","TA1305000035","Clinton St & Jackson Blvd","638",41.877181,-87.627844,41.8783166118307,-87.6409810781479,"member"
"FDD0A5902F63E926","classic_bike","2022-03-01 16:26:20","2022-03-01 16:38:44","Rush St & Superior St","15530","Clark St & Lincoln Ave","13179",41.89576474564,-87.6259080327,41.915689,-87.6346,"member"
"C2522EBAE3DD9E9B","electric_bike","2022-03-15 10:00:00","2022-03-15 10:08:45","","","Ashland Ave & Division St","13061",41.91,-87.69,41.90345,-87.667747,"casual"
"32EE7C33C549B8C7","electric_bike","2022-03-01 16:45:19","2022-03-01 16:56:44","Eastlake Ter & Rogers Ave","523","University Library (NU)","605",42.020829,-87.665066,42.052939,-87.673447,"member"
"52B248858A9CDFFD","classic_bike","2022-03-21 17:51:49","2022-03-21 17:57:02","Rush St & Cedar St","KA1504000133","Clark St & Schiller St","TA1309000024",41.90230870122,-87.627690528,41.907993,-87.631501,"member"
"7086E8ABC1D0C87B","electric_bike","2022-03-13 07:25:56","2022-03-13 08:01:31","Albany Ave & Bloomingdale Ave","15655","Walsh Park","18067",41.9139993333333,-87.7052286666667,41.91461,-87.667968,"casual"
"375FB96D062A0CD8","classic_bike","2022-03-13 21:29:49","2022-03-13 21:46:59","Halsted St & Wrightwood Ave","TA1309000061","Halsted St & Wrightwood Ave","TA1309000061",41.929143,-87.649077,41.929143,-87.649077,"member"
"446C68DF3C34C3B9","electric_bike","2022-03-18 22:56:10","2022-03-18 23:35:11","State St & 19th St","SL-013","","",41.8565915,-87.6275931666667,41.97,-87.66,"casual"
"8C5834A8C0FEEF5D","classic_bike","2022-03-16 16:17:36","2022-03-16 16:46:37","Wilton Ave & Belmont Ave","TA1307000134","Broadway & Barry Ave","13137",41.94018,-87.65304,41.9375823160063,-87.6440978050232,"member"
"7F9FBB354E133DB7","classic_bike","2022-03-16 17:29:43","2022-03-16 17:41:14","Wells St & Huron St","TA1306000012","Clark St & Lincoln Ave","13179",41.894722,-87.634362,41.915689,-87.6346,"casual"
"A1C5EA5F14A53633","classic_bike","2022-03-08 07:18:49","2022-03-08 07:21:26","Kingsbury St & Erie St","13265","Kingsbury St & Kinzie St","KA1503000043",41.8938080562436,-87.6416972279549,41.88917683258,-87.6385057718,"member"
"48E26AB3D455520E","classic_bike","2022-03-06 15:55:39","2022-03-06 16:02:31","Clinton St & Madison St","TA1305000032","Franklin St & Jackson Blvd","TA1305000025",41.882242,-87.641066,41.8777079559,-87.6353211408,"member"
"70C07BED9FE7E141","classic_bike","2022-03-26 00:12:55","2022-03-26 00:21:53","Prairie Ave & Garfield Blvd","TA1307000160","Woodlawn Ave & 55th St","TA1307000164",41.794853,-87.618691,41.795264,-87.596471,"member"
"C1A024A0231C16EC","electric_bike","2022-03-08 05:38:04","2022-03-08 05:47:14","Ogden Ave & Chicago Ave","TA1305000020","Mies van der Rohe Way & Chicago Ave","13338",41.896377,-87.6540961666667,41.8969446263708,-87.6217576861382,"member"
"21132F5C139A4581","electric_bike","2022-03-25 22:54:01","2022-03-25 23:03:34","Kingsbury St & Kinzie St","KA1503000043","","",41.8892245,-87.638436,41.9,-87.67,"casual"
"007B791F4F4037A0","electric_bike","2022-03-13 17:09:42","2022-03-13 17:17:48","","","","",41.97,-87.7,41.96,-87.7,"casual"
"40785D282A1F82C4","electric_bike","2022-03-17 16:54:59","2022-03-17 17:02:16","Cityfront Plaza Dr & Pioneer Ct","13427","Rush St & Cedar St","KA1504000133",41.8904815,-87.6224438333333,41.90230870122,-87.627690528,"member"
"4F985F82EC2FCEA6","electric_bike","2022-03-25 16:38:16","2022-03-25 16:42:54","","","","",41.79,-87.6,41.8,-87.58,"member"
"0AE5A0BC0EAB9D68","classic_bike","2022-03-31 05:13:35","2022-03-31 05:20:01","Clark St & Lake St","KA1503000012","Wells St & Polk St","SL-011",41.88602082773,-87.6308760584,41.872596,-87.633502,"member"
"D20EE860022CC61E","classic_bike","2022-03-27 07:12:14","2022-03-27 07:22:56","Woodlawn Ave & Lake Park Ave","KA1503000065","Calumet Ave & 35th St","13345",41.81409271048,-87.5970051479,41.831379,-87.618034,"member"
"A7EC708E0529C92D","electric_bike","2022-03-09 05:35:51","2022-03-09 05:43:54","Columbus Dr & Randolph St","13263","Morgan St & Lake St","TA1306000015",41.8844156666667,-87.6196071666667,41.8857792524043,-87.6510246098041,"member"
"315BB2A1B9EC9410","electric_bike","2022-03-29 16:24:01","2022-03-29 16:38:02","Broadway & Argyle St","13108","Clarendon Ave & Gordon Ter","13379",41.973878622,-87.659870148,41.9578665241517,-87.6495051383972,"member"
"71B1779BB1A18E4A","electric_bike","2022-03-16 17:13:20","2022-03-16 17:22:17","","","","",41.92,-87.69,41.91,-87.7,"member"
"E8E3124D1FC5A8FF","classic_bike","2022-03-07 17:44:50","2022-03-07 17:50:52","Aberdeen St & Randolph St","18062","Morgan St & Polk St","TA1307000130",41.884114,-87.654264,41.871737,-87.65103,"member"
"EA0789BC1DC1FC42","classic_bike","2022-03-23 06:52:13","2022-03-23 06:55:49","Orleans St & Merchandise Mart Plaza","TA1305000022","Canal St & Madison St","13341",41.888243,-87.63639,41.882091,-87.639833,"member"
"CD16C50715F4EBD3","classic_bike","2022-03-15 17:19:55","2022-03-15 18:27:15","Buckingham Fountain","15541","Buckingham Fountain","15541",41.8765351944122,-87.62047290802,41.8765351944122,-87.62047290802,"casual"
"493F280980E5ADF7","electric_bike","2022-03-25 12:22:44","2022-03-25 12:31:58","Clinton St & Washington Blvd","WL-012","Michigan Ave & Washington St","13001",41.8832661666667,-87.6411038333333,41.8839840647265,-87.6246839761734,"member"
"2103FF57FF47E4DA","electric_bike","2022-03-24 06:59:01","2022-03-24 07:09:48","Milwaukee Ave & Rockwell St","13242","Ashland Ave & Division St","13061",41.9203888333333,-87.692623,41.90345,-87.667747,"member"
"1A3EDFF32358AF38","electric_bike","2022-03-09 14:40:54","2022-03-09 14:57:37","","","Sheridan Rd & Irving Park Rd","13063",41.95,-87.69,41.954245,-87.654406,"member"
"C61AFDE166193B8A","electric_bike","2022-03-05 10:52:32","2022-03-05 11:01:26","Southport Ave & Roscoe St","13071","Sheffield Ave & Fullerton Ave","TA1306000016",41.9436151666667,-87.6639213333333,41.9256018819,-87.6537080423,"member"
"B47B3D0B9502BC59","electric_bike","2022-03-14 17:43:08","2022-03-14 18:02:45","","","","",41.96,-87.67,41.92,-87.68,"member"
"4FBE354C821EA5D3","classic_bike","2022-03-17 07:23:54","2022-03-17 07:58:39","Fairbanks Ct & Grand Ave","TA1305000003","Shields Ave & 28th Pl","15443",41.8918473721099,-87.6205801963806,41.842733,-87.635491,"member"
"ADB49686B077311E","electric_bike","2022-03-19 11:37:36","2022-03-19 11:54:21","","","Clark St & Berwyn Ave","KA1504000146",41.94,-87.65,41.9780306224866,-87.668564915657,"member"
"26A651291C3CEF12","classic_bike","2022-03-29 17:28:25","2022-03-29 17:38:57","Artesian Ave & Hubbard St","15664","Damen Ave & Thomas St (Augusta Blvd)","TA1307000070",41.88949181977,-87.6882193648,41.901315,-87.677409,"member"
"A8FE13EB82115F35","classic_bike","2022-03-06 10:57:33","2022-03-06 11:03:44","Broadway & Waveland Ave","13325","Broadway & Barry Ave","13137",41.949074,-87.648636,41.9375823160063,-87.6440978050232,"member"
"B939D86F9FA6256F","electric_bike","2022-03-21 13:59:49","2022-03-21 14:03:10","","","","",41.82,-87.69,41.82,-87.69,"member"
"2D649E78EB265C2D","electric_bike","2022-03-04 09:40:41","2022-03-04 09:52:07","Rush St & Superior St","15530","Canal St & Jackson Blvd","13138",41.895697117,-87.62602818,41.877245,-87.639366,"casual"
"8EDF0F691D6513DF","electric_bike","2022-03-05 12:03:57","2022-03-05 12:16:53","Damen Ave & Wellington Ave","13268","Campbell Ave & North Ave","13257",41.9358863333333,-87.6784508333333,41.910535,-87.689556,"casual"
"C3EA5B7D8E690550","electric_bike","2022-03-01 16:28:51","2022-03-01 16:30:15","California Ave & Milwaukee Ave","13084","","",41.9226188333333,-87.697113,41.92,-87.7,"casual"
"CE3F728FC92256E6","electric_bike","2022-03-01 07:39:06","2022-03-01 07:45:22","State St & Kinzie St","13050","Larrabee St & Kingsbury St","TA1306000009",41.8886831666667,-87.627834,41.897764,-87.642884,"member"
"1C091447DFFB7F41","electric_bike","2022-03-29 16:05:16","2022-03-29 16:22:20","Wabash Ave & Wacker Pl","TA1307000131","Halsted St & Dickens Ave","13192",41.886924,-87.6265066666667,41.919936,-87.64883,"casual"
"014579852F628E3B","classic_bike","2022-03-04 18:50:13","2022-03-04 18:52:28","Pine Grove Ave & Irving Park Rd","TA1308000022","Sheridan Rd & Irving Park Rd","13063",41.954383,-87.648043,41.954245,-87.654406,"member"
"46EFEB5F67818A40","electric_bike","2022-03-18 17:07:32","2022-03-18 17:20:54","","","","",41.94,-87.69,41.94,-87.73,"member"
"D568723BFAB728DC","electric_bike","2022-03-04 10:59:28","2022-03-04 11:13:29","Morgan St & 31st St","TA1308000046","Wabash Ave & Roosevelt Rd","TA1305000002",41.8376756666667,-87.6510815,41.867227,-87.625961,"member"
"7FFFEDF3E201A9DE","electric_bike","2022-03-22 16:43:42","2022-03-22 16:56:19","","","Clinton St & Jackson Blvd","638",41.89,-87.62,41.8783166118307,-87.6409810781479,"member"
"AB911399E54A600D","electric_bike","2022-03-21 17:16:54","2022-03-21 17:19:03","DuSable Lake Shore Dr & Wellington Ave","TA1307000041","DuSable Lake Shore Dr & Belmont Ave","TA1309000049",41.9368381666667,-87.6368571666667,41.940775,-87.639192,"casual"
"FC065621668B1B6D","electric_bike","2022-03-26 08:36:44","2022-03-26 08:55:03","","","Kingsbury St & Kinzie St","KA1503000043",41.94,-87.64,41.88917683258,-87.6385057718,"member"
"EBA88A6EE387D3A1","electric_bike","2022-03-01 14:24:01","2022-03-01 14:35:01","Shore Dr & 55th St","TA1308000009","","",41.7952005,-87.5808693333333,41.77,-87.57,"member"
"B77C4CF02956F331","electric_bike","2022-03-27 16:58:43","2022-03-27 17:06:50","Wood St & Chicago Ave","637","","",41.8955558333333,-87.6720938333333,41.89,-87.67,"casual"
"BE1A45CAFD2F06ED","electric_bike","2022-03-22 07:48:29","2022-03-22 07:56:33","Artesian Ave & Hubbard St","15664","Elizabeth (May) St & Fulton St","13197",41.8894793333333,-87.6882576666667,41.8866164860277,-87.6580399274826,"member"
"D734F0CA7EFDBF2B","classic_bike","2022-03-25 14:37:47","2022-03-25 14:44:17","Racine Ave & Belmont Ave","TA1308000019","Racine Ave & Fullerton Ave","TA1306000026",41.939743,-87.658865,41.92556258,-87.65840426,"member"
"EF90056A2BC4FAA3","classic_bike","2022-03-14 17:42:45","2022-03-14 17:51:49","Michigan Ave & 14th St","TA1307000124","McCormick Place","TA1305000004",41.864059,-87.623727,41.8513751729,-87.6188346489,"casual"
"8A6D392E0BEB32A8","classic_bike","2022-03-28 16:04:16","2022-03-28 16:19:09","Ravenswood Ave & Lawrence Ave","TA1309000066","Lincoln Ave & Roscoe St","TA1307000138",41.96909,-87.674237,41.9437911500595,-87.671257853508,"member"
"1A740C099D53DBF8","electric_bike","2022-03-22 11:53:54","2022-03-22 11:59:53","","","Kimbark Ave & 53rd St","TA1309000037",41.79,-87.59,41.799568,-87.594747,"casual"
"25BF0762DA5F4A2B","electric_bike","2022-03-16 16:33:44","2022-03-16 17:13:08","Ashland Ave & Division St","13061","Dusable Harbor","KA1503000064",41.903151751,-87.66774261,41.886976,-87.612813,"member"
"9EAB1B64C544D564","electric_bike","2022-03-01 07:10:17","2022-03-01 07:14:31","Michigan Ave & Oak St","13042","Wabash Ave & Grand Ave","TA1307000117",41.900889754,-87.623770595,41.891466,-87.626761,"member"
"BF49B44B4029204A","electric_bike","2022-03-04 09:09:39","2022-03-04 09:13:35","Racine Ave & 35th St","15446","","",41.8306278333333,-87.6561548333333,41.83,-87.66,"casual"
"441A621E5F26FE52","classic_bike","2022-03-21 16:57:44","2022-03-21 17:40:48","Michigan Ave & Oak St","13042","Michigan Ave & Oak St","13042",41.90096039,-87.62377664,41.90096039,-87.62377664,"casual"
"856ABBF4BF8153AA","electric_bike","2022-03-13 12:15:31","2022-03-13 12:18:17","Woodlawn Ave & 55th St","TA1307000164","","",41.795279,-87.5964373333333,41.8,-87.59,"member"
"F9CD3717421A2FDB","classic_bike","2022-03-06 11:26:13","2022-03-06 12:36:30","Michigan Ave & Washington St","13001","State St & Van Buren St","TA1305000035",41.8839840647265,-87.6246839761734,41.877181,-87.627844,"casual"
"B4AEBB4379DAA99A","classic_bike","2022-03-15 10:02:05","2022-03-15 10:08:51","Wells St & Polk St","SL-011","Clinton St & Jackson Blvd","638",41.872596,-87.633502,41.8783166118307,-87.6409810781479,"casual"
"73CB4B76D97CE5AE","electric_bike","2022-03-23 20:53:46","2022-03-23 21:05:49","Kedzie Ave & Foster Ave","KA1504000128","Broadway & Ridge Ave","15578",41.9757043333333,-87.7092863333333,41.9840446107,-87.6602738295,"member"
"83FF6B2C6CC81161","classic_bike","2022-03-01 17:37:26","2022-03-01 18:27:02","Lakefront Trail & Bryn Mawr Ave","15576","Franklin St & Jackson Blvd","TA1305000025",41.9840441151921,-87.6522812247276,41.8777079559,-87.6353211408,"member"
"C5162B7D12AEA48E","electric_bike","2022-03-30 09:51:00","2022-03-30 09:54:33","","","","",41.79,-87.6,41.79,-87.6,"member"
"EAA391201D405D2B","electric_bike","2022-03-23 19:13:06","2022-03-23 19:17:43","","","","",41.78,-87.6,41.79,-87.6,"member"
"2BE04574CE1D96FC","classic_bike","2022-03-15 19:22:59","2022-03-15 19:30:56","Wabash Ave & Wacker Pl","TA1307000131","Canal St & Adams St","13011",41.886875,-87.62603,41.879255,-87.639904,"member"
"A55A408693D8FBCC","electric_bike","2022-03-02 20:12:55","2022-03-02 20:19:20","California Ave & Milwaukee Ave","13084","","",41.9226471666667,-87.6971553333333,41.91,-87.69,"member"
"928C0C827E0DD88B","electric_bike","2022-03-11 14:09:41","2022-03-11 14:19:44","","","","",41.93,-87.67,41.93,-87.64,"casual"
"F4EF2B9760CA0BEA","electric_bike","2022-03-27 23:44:45","2022-03-27 23:52:45","","","N Shore Channel Trail & Argyle St","444",41.97,-87.68,41.97,-87.7,"member"
"28771EA94E569A48","classic_bike","2022-03-25 17:33:40","2022-03-25 17:41:19","Broadway & Wilson - Truman College Vaccination Site","13074","Pine Grove Ave & Irving Park Rd","TA1308000022",41.965221,-87.658139,41.954383,-87.648043,"member"
"23F476C77F9FDCB4","electric_bike","2022-03-20 19:09:59","2022-03-20 19:14:24","Larrabee St & Webster Ave","13193","Larrabee St & North Ave","TA1306000008",41.9218136666667,-87.644049,41.91021,-87.6435,"member"
"44C23B99577FB2C6","classic_bike","2022-03-27 15:22:30","2022-03-27 15:35:59","Delano Ct & Roosevelt Rd","KA1706005007","May St & Taylor St","13160",41.867491,-87.63219,41.8694821,-87.6554864,"member"
"B3B44015B760E9E6","electric_bike","2022-03-31 18:32:56","2022-03-31 18:39:43","Ellis Ave & 55th St","KA1504000076","","",41.7942893333333,-87.6013913333333,41.8,-87.59,"member"
"FE9C4C71417024B4","classic_bike","2022-03-05 11:32:36","2022-03-05 11:38:48","Lincoln Ave & Fullerton Ave","TA1309000058","Larrabee St & Menomonee St","TA1306000007",41.9241610290676,-87.6463803648949,41.91468,-87.64332,"casual"
"B1B2B810D7BF32BD","classic_bike","2022-03-20 16:30:28","2022-03-20 16:57:17","DuSable Lake Shore Dr & North Blvd","LF-005","Broadway & Wilson - Truman College Vaccination Site","13074",41.911722,-87.626804,41.965221,-87.658139,"member"
"A97A74CAC02C8C29","electric_bike","2022-03-31 14:07:18","2022-03-31 14:25:05","Pulaski Rd & 51st St","343","","",41.8,-87.72,41.82,-87.69,"casual"
"6C4A22397F9AFAD0","electric_bike","2022-03-23 10:47:39","2022-03-23 12:06:43","McClurg Ct & Ohio St","TA1306000029","Shedd Aquarium","15544",41.892716,-87.6175816666667,41.86722595682,-87.6153553902,"casual"
"310B1D9254AB6FC3","classic_bike","2022-03-16 11:46:01","2022-03-16 11:59:59","DuSable Lake Shore Dr & Monroe St","13300","DuSable Lake Shore Dr & Monroe St","13300",41.880958,-87.616743,41.880958,-87.616743,"casual"
"A0BABD91CAA50326","electric_bike","2022-03-15 19:23:53","2022-03-15 19:43:30","","","Western Ave & Monroe St","15667",41.87,-87.64,41.8797877089,-87.686112808,"casual"
"C3F5D1CA899992F7","classic_bike","2022-03-21 18:06:03","2022-03-21 18:28:49","Rush St & Superior St","15530","Green St & Madison St","TA1307000120",41.89576474564,-87.6259080327,41.881892,-87.648789,"casual"
"3E211D0B48F18BD3","classic_bike","2022-03-08 21:13:54","2022-03-08 21:19:08","Burling St & Diversey Pkwy","TA1309000036","Halsted St & Roscoe St","TA1309000025",41.93314,-87.64776,41.94367,-87.64895,"member"
"CFAB7AA4BF3E9F9E","classic_bike","2022-03-29 08:05:33","2022-03-29 08:14:13","Milwaukee Ave & Grand Ave","13033","Wabash Ave & Grand Ave","TA1307000117",41.891578,-87.648384,41.891466,-87.626761,"member"
"442742FB55521E0D","electric_bike","2022-03-10 09:17:22","2022-03-10 09:25:01","Larrabee St & Kingsbury St","TA1306000009","","",41.897739887,-87.642932773,41.88,-87.64,"member"
"1006454EB6794653","classic_bike","2022-03-30 19:16:00","2022-03-30 19:29:02","Logan Blvd & Elston Ave","TA1308000031","Oakley Ave & Irving Park Rd","KA1504000158",41.929465,-87.684158,41.95434085219,-87.6860796243,"member"
"B6F7F24F3D8B027D","electric_bike","2022-03-31 23:36:37","2022-03-31 23:36:49","","","","",41.92,-87.69,41.92,-87.69,"casual"
"87098DDB1DF18F6D","classic_bike","2022-03-28 15:27:25","2022-03-28 15:31:26","State St & 33rd St","13216","State St & 35th St","TA1307000129",41.834734,-87.625813,41.8310363140161,-87.6267975568771,"member"
"C772A7C24BAA66CD","electric_bike","2022-03-09 07:47:38","2022-03-09 07:55:54","","","Damen Ave & Walnut (Lake) St","KA17018054",41.9,-87.69,41.885951,-87.677009,"casual"
"68A312B314CE03BD","electric_bike","2022-03-21 16:08:43","2022-03-21 16:21:55","W Washington Blvd & N Peoria St","20247.0","Dearborn Pkwy & Delaware Pl","TA1307000128",41.88,-87.65,41.898969,-87.629912,"casual"
"599149E1BCA81173","electric_bike","2022-03-20 12:48:13","2022-03-20 13:38:01","Clark St & Winnemac Ave","TA1309000035","Clark St & Berwyn Ave","KA1504000146",41.9734165,-87.6678151666667,41.9780306224866,-87.668564915657,"casual"
"1121946276F2029F","electric_bike","2022-03-12 19:21:23","2022-03-12 19:26:43","","","","",41.79,-87.61,41.8,-87.6,"member"
"45867D478B3F6042","electric_bike","2022-03-23 17:00:05","2022-03-23 17:04:36","","","Western Ave & Winnebago Ave","13068",41.91,-87.68,41.91552,-87.687022,"member"
"04E04B004DA0FDB5","classic_bike","2022-03-29 17:22:09","2022-03-29 17:25:47","University Ave & 57th St","KA1503000071","Ellis Ave & 60th St","KA1503000014",41.791478,-87.599861,41.78509714636,-87.6010727606,"member"
"A9044415521BD5D9","electric_bike","2022-03-14 22:19:08","2022-03-14 22:25:10","Clark St & Drummond Pl","TA1307000142","Broadway & Waveland Ave","13325",41.9312808333333,-87.6443348333333,41.949074,-87.648636,"casual"
"F3995EB9F58D27B7","classic_bike","2022-03-16 11:01:54","2022-03-16 11:36:39","Lincoln Ave & Diversey Pkwy","TA1307000064","Franklin St & Jackson Blvd","TA1305000025",41.932225,-87.658617,41.8777079559,-87.6353211408,"member"
"14F0D332CBC10FC3","classic_bike","2022-03-21 15:49:21","2022-03-21 17:19:47","Shore Dr & 55th St","TA1308000009","Shore Dr & 55th St","TA1308000009",41.795212,-87.580715,41.795212,-87.580715,"casual"
"C07317326448AF14","classic_bike","2022-03-25 15:56:42","2022-03-25 16:00:15","Bissell St & Armitage Ave","13059","Larrabee St & Armitage Ave","TA1309000006",41.9180181423719,-87.6521819829941,41.918084,-87.643749,"member"
"0AE4D771D1D412F9","electric_bike","2022-03-21 09:14:39","2022-03-21 09:26:29","Sheffield Ave & Kingsbury St","13154","Sheffield Ave & Wellington Ave","TA1307000052",41.910507,-87.653168,41.9362534831413,-87.6526620984077,"member"
"96DA07DC2BB69DE3","electric_bike","2022-03-19 11:27:31","2022-03-19 11:51:17","Shedd Aquarium","15544","","",41.867252,-87.6154321666667,41.9,-87.63,"casual"
"0B9A1BFDA37161C2","classic_bike","2022-03-25 17:57:50","2022-03-25 18:08:01","Kedzie Ave & Milwaukee Ave","13085","California Ave & North Ave","13258",41.929567,-87.707857,41.91044,-87.6972,"member"
"E25121E37D6A8200","classic_bike","2022-03-20 17:05:54","2022-03-20 17:30:36","Morgan St & Lake St","TA1306000015","Clark St & Wrightwood Ave","TA1305000014",41.8857792524043,-87.6510246098041,41.929546,-87.643118,"member"
"DCF468517F16BC6F","electric_bike","2022-03-18 16:34:27","2022-03-18 16:39:01","Aberdeen St & Monroe St","13156","Morgan St & Lake St","TA1306000015",41.8803975,-87.6557763333333,41.8857792524043,-87.6510246098041,"member"
"F8371A9FE9D83E55","classic_bike","2022-03-01 11:10:21","2022-03-01 11:33:14","Sedgwick St & North Ave","TA1307000038","Sedgwick St & North Ave","TA1307000038",41.911386,-87.638677,41.911386,-87.638677,"casual"
"ECEE1A36E84471A5","electric_bike","2022-03-01 10:22:02","2022-03-01 10:25:19","Damen Ave & Division St","13136","Milwaukee Ave & Wabansia Ave","13243",41.903306723,-87.67846179,41.912616,-87.681391,"member"
"3F5259DD1123EA55","electric_bike","2022-03-20 09:56:10","2022-03-20 10:07:24","Michigan Ave & Jackson Blvd","TA1309000002","Dearborn St & Erie St","13045",41.8777978333333,-87.6241361666667,41.893992,-87.629318,"casual"
"8A6D488F21EB1D63","docked_bike","2022-03-14 20:28:36","2022-03-14 20:33:11","State St & Randolph St","TA1305000029","Canal St & Madison St","13341",41.884621,-87.627834,41.882091,-87.639833,"casual"
"7011041441687850","classic_bike","2022-03-20 16:19:04","2022-03-20 16:47:45","DuSable Lake Shore Dr & North Blvd","LF-005","Stave St & Armitage Ave","13266",41.911722,-87.626804,41.917741,-87.691392,"casual"
"D03EEB10BF73E6EA","classic_bike","2022-03-04 21:31:49","2022-03-04 21:36:53","Damen Ave & Grand Ave","TA1308000006","Damen Ave & Division St","13136",41.8912643464815,-87.676842212677,41.903266,-87.678435,"casual"
"CC6BC03351E34762","classic_bike","2022-03-21 17:46:12","2022-03-21 18:22:09","DuSable Lake Shore Dr & North Blvd","LF-005","Sheffield Ave & Fullerton Ave","TA1306000016",41.911722,-87.626804,41.9256018819,-87.6537080423,"casual"
"F60047B537E71C7E","classic_bike","2022-03-28 16:27:00","2022-03-28 16:35:17","Hermitage Ave & Polk St","13080","Morgan St & Polk St","TA1307000130",41.871514,-87.669886,41.871737,-87.65103,"member"
"1892BB58373EAD5D","classic_bike","2022-03-26 12:16:22","2022-03-26 12:18:07","Lincoln Ave & Fullerton Ave","TA1309000058","Larrabee St & Webster Ave","13193",41.9241610290676,-87.6463803648949,41.921822,-87.64414,"member"
"C1198149FF26D5FF","electric_bike","2022-03-08 10:53:14","2022-03-08 10:58:14","","","","",41.8,-87.59,41.79,-87.6,"member"
"077D54A782108967","electric_bike","2022-03-31 09:52:34","2022-03-31 10:22:03","Wabash Ave & 9th St","TA1309000010","","",41.8704875,-87.6258668333333,41.86,-87.64,"casual"
"A56F0CCB8DDC6865","classic_bike","2022-03-07 11:50:20","2022-03-07 11:59:59","Ellis Ave & 55th St","KA1504000076","Lake Park Ave & 53rd St","KA1503000059",41.79430062054,-87.6014497734,41.79949429373,-87.5864498959,"member"
"25C001CE22565F95","electric_bike","2022-03-01 07:44:22","2022-03-01 07:47:14","Seeley Ave & Roscoe St","13144","Lincoln Ave & Roscoe St","TA1307000138",41.9434546666667,-87.6796236666667,41.9437911500595,-87.671257853508,"member"
"2F809F3F4FD0B2DD","classic_bike","2022-03-04 16:44:13","2022-03-04 16:54:37","State St & 33rd St","13216","MLK Jr Dr & 29th St","TA1307000139",41.834734,-87.625813,41.842052,-87.617,"member"
"13D3D65D1E4C5188","electric_bike","2022-03-18 11:13:31","2022-03-18 11:24:09","","","","",41.96,-87.69,41.96,-87.73,"casual"
"5F61FFC2312309A2","classic_bike","2022-03-10 15:25:43","2022-03-10 15:31:00","Ellis Ave & 55th St","KA1504000076","Ellis Ave & 60th St","KA1503000014",41.79430062054,-87.6014497734,41.78509714636,-87.6010727606,"casual"
"EB7046B9DA767099","electric_bike","2022-03-26 05:57:51","2022-03-26 06:09:00","Noble St & Milwaukee Ave","13290","Canal St & Harrison St","13326",41.9007148333333,-87.6624743333333,41.874255,-87.639573,"member"
"FE1562FF8E8A1759","classic_bike","2022-03-18 06:32:04","2022-03-18 06:43:16","Canal St & Adams St","13011","Noble St & Milwaukee Ave","13290",41.879255,-87.639904,41.90068,-87.6626,"member"
"D39BD3BD2E8FBABA","classic_bike","2022-03-24 09:03:10","2022-03-24 09:10:35","Western Ave & Fillmore St","644","Wolcott Ave & Polk St","TA1309000064",41.868563,-87.686234,41.871262,-87.673688,"member"
"7D87C6327527633D","electric_bike","2022-03-16 19:30:37","2022-03-16 19:39:01","","","","",41.93,-87.79,41.92,-87.77,"member"
"36D6EAFEED58D3C1","electric_bike","2022-03-31 16:59:40","2022-03-31 17:06:44","","","","",41.94,-87.71,41.94,-87.71,"casual"
"D7BFAEF058B5F6AE","electric_bike","2022-03-24 08:38:40","2022-03-24 08:47:35","Field Blvd & South Water St","15534","Franklin St & Lake St","TA1307000111",41.886240005,-87.617304683,41.885837,-87.6355,"casual"
"FAB92070B913EC4D","classic_bike","2022-03-30 08:49:39","2022-03-30 09:08:00","Canal St & Harrison St","13326","Franklin St & Chicago Ave","13017",41.874255,-87.639573,41.8967469730938,-87.6356676220894,"member"
"AFE616F331D059D2","electric_bike","2022-03-14 09:46:01","2022-03-14 09:53:04","Daley Center Plaza","TA1306000010","","",41.8839275,-87.629688,41.89,-87.62,"member"
"24189A23666D6D95","electric_bike","2022-03-01 15:09:03","2022-03-01 15:18:48","Clark St & Leland Ave","TA1309000014","Southport Ave & Wellington Ave","TA1307000006",41.9671105,-87.6674353333333,41.935733,-87.663576,"member"
"3819E53451F9FB16","classic_bike","2022-03-18 11:43:07","2022-03-18 11:57:23","Carpenter St & Huron St","13196","Dearborn St & Erie St","13045",41.894556,-87.653449,41.893992,-87.629318,"member"
"F6507CD8C58A6457","classic_bike","2022-03-19 14:22:20","2022-03-19 14:28:54","Dearborn St & Erie St","13045","Dearborn Pkwy & Delaware Pl","TA1307000128",41.893992,-87.629318,41.898969,-87.629912,"casual"
"D8566D74CDB9F93E","electric_bike","2022-03-02 20:11:10","2022-03-02 20:14:29","","","Clark St & Newport St","632",41.95,-87.66,41.94454,-87.654678,"member"
"449A8B6FF608C745","electric_bike","2022-03-23 20:40:32","2022-03-23 20:43:40","May St & Cullerton St","13331","Halsted St & 21st St","13162",41.855204582,-87.654148579,41.8537798107274,-87.6466029882431,"member"
"04AF1B6E9072BDC6","classic_bike","2022-03-23 09:31:47","2022-03-23 09:41:04","Clark St & Grace St","TA1307000127","Racine Ave & Fullerton Ave","TA1306000026",41.95078,-87.659172,41.92556258,-87.65840426,"member"
"0B1CC070A4E1B70F","docked_bike","2022-03-17 19:05:22","2022-03-17 20:32:37","LaSalle St & Illinois St","13430","Ada St & Washington Blvd","13353",41.890762,-87.631697,41.88283,-87.661206,"casual"
"39B97366A40A3E4A","electric_bike","2022-03-22 16:18:54","2022-03-22 16:30:29","Clinton St & Jackson Blvd","638","Ashland Ave & Division St","13061",41.878439903,-87.641218066,41.90345,-87.667747,"member"
"7C53CAFF632A9803","classic_bike","2022-03-29 14:11:38","2022-03-29 14:16:25","LaSalle St & Jackson Blvd","TA1309000004","Canal St & Monroe St","13056",41.878166,-87.631929,41.88169,-87.63953,"member"
"44F0A84A5EDB499B","classic_bike","2022-03-03 16:42:58","2022-03-03 16:47:53","University Ave & 57th St","KA1503000071","Ellis Ave & 53rd St","KA1503000052",41.791478,-87.599861,41.79933626261,-87.6009581145,"member"
"E86AB57241692A27","classic_bike","2022-03-16 19:42:06","2022-03-16 19:54:25","Greenview Ave & Jarvis Ave","520","Sheridan Rd & Loyola Ave","RP-009",42.015962,-87.66857,42.00104377979,-87.6611982433,"member"
"3F30054872CC5301","classic_bike","2022-03-23 00:03:23","2022-03-23 00:06:34","Kingsbury St & Erie St","13265","Dearborn St & Erie St","13045",41.8938080562436,-87.6416972279549,41.893992,-87.629318,"member"
"7B42E6E4B8B6663E","electric_bike","2022-03-16 16:34:00","2022-03-16 17:06:29","","","N Clark St & W Elm St","20249.0",41.92,-87.64,41.9,-87.63,"casual"
"7552A41347E652B0","docked_bike","2022-03-16 17:58:37","2022-03-16 18:48:20","Streeter Dr & Grand Ave","13022","Streeter Dr & Grand Ave","13022",41.892278,-87.612043,41.892278,-87.612043,"casual"
"8B2EEE63720D3B8D","electric_bike","2022-03-03 15:35:31","2022-03-03 15:41:10","","","Southport Ave & Roscoe St","13071",41.94,-87.68,41.943739,-87.66402,"casual"
"A185E8B62A9DF888","electric_bike","2022-03-09 10:25:05","2022-03-09 10:34:36","Canal St & Adams St","13011","Larrabee St & Kingsbury St","TA1306000009",41.8794558333333,-87.639912,41.897764,-87.642884,"member"
"A1877B6975C3954E","electric_bike","2022-03-21 04:19:03","2022-03-21 04:36:43","Broadway & Wilson - Truman College Vaccination Site","13074","Lakefront Trail & Bryn Mawr Ave","15576",41.9651021666667,-87.6583963333333,41.9840441151921,-87.6522812247276,"casual"
"8D4055C4C2887BFE","classic_bike","2022-03-01 17:09:36","2022-03-01 17:25:03","Damen Ave & Leland Ave","TA1307000158","Wilton Ave & Belmont Ave","TA1307000134",41.967094,-87.679028,41.94018,-87.65304,"member"
"C0922473DA6AB14E","classic_bike","2022-03-21 11:04:13","2022-03-21 11:16:57","Ashland Ave & Augusta Blvd","13248","Aberdeen St & Monroe St","13156",41.899643,-87.6677,41.880419,-87.655519,"member"
"A90CB48B7CA416CB","electric_bike","2022-03-31 17:44:07","2022-03-31 17:56:57","Damen Ave & Grand Ave","TA1308000006","Damen Ave & Cortland St","13133",41.891380668,-87.676854491,41.915983,-87.677335,"member"
"3B56014BB4F0E1D3","electric_bike","2022-03-08 16:23:39","2022-03-08 16:32:59","Rush St & Superior St","15530","Clinton St & Washington Blvd","WL-012",41.8958855,-87.6261838333333,41.88338,-87.64117,"member"
"EBCFC293421FD6F1","classic_bike","2022-03-05 17:24:31","2022-03-05 18:05:50","Throop St & Taylor St","13139","Throop St & Taylor St","13139",41.868968,-87.659141,41.868968,-87.659141,"casual"
"03974FF7F7B1EEEB","classic_bike","2022-03-03 19:18:15","2022-03-03 19:25:42","State St & Randolph St","TA1305000029","Canal St & Adams St","13011",41.8846210725794,-87.6278342306614,41.879255,-87.639904,"member"
"54079B9AA47A0DC1","classic_bike","2022-03-17 07:08:53","2022-03-17 07:12:06","Ashland Ave & Chicago Ave","13247","Ashland Ave & Augusta Blvd","13248",41.8959743225961,-87.6677253842354,41.899643,-87.6677,"member"
"4897CDEAA1E451F6","classic_bike","2022-03-01 07:53:06","2022-03-01 08:10:30","Greenview Ave & Jarvis Ave","520","Benson Ave & Church St","596",42.015962,-87.66857,42.048214,-87.683485,"member"
"A99E43D10344DE5D","electric_bike","2022-03-31 16:44:34","2022-03-31 16:49:04","Ashland Ave & Lake St","13073","","",41.8859581666667,-87.6671781666667,41.88,-87.68,"casual"
"08440D3B2E84A63A","electric_bike","2022-03-19 14:05:22","2022-03-19 14:10:14","","","Halsted St & Roscoe St","TA1309000025",41.95,-87.65,41.94367,-87.64895,"casual"
"28AF80D45A50B3B6","classic_bike","2022-03-04 15:56:15","2022-03-04 16:02:21","Clarendon Ave & Junior Ter","13389","Broadway & Waveland Ave","13325",41.961004,-87.649603,41.949074,-87.648636,"member"
"F0D7690F34CBF36F","electric_bike","2022-03-16 14:58:18","2022-03-16 15:11:28","Clark St & Lincoln Ave","13179","Michigan Ave & Oak St","13042",41.9156906666667,-87.634592,41.90096039,-87.62377664,"casual"
"307129182DCF85F4","classic_bike","2022-03-05 14:16:23","2022-03-05 14:28:03","Clark St & Lincoln Ave","13179","Lincoln Ave & Diversey Pkwy","TA1307000064",41.915689,-87.6346,41.932225,-87.658617,"casual"
"257B240ACB5D98FB","electric_bike","2022-03-19 16:11:24","2022-03-19 16:16:31","","","","",41.95,-87.71,41.94,-87.71,"member"
"1B6264E78C32B79F","electric_bike","2022-03-25 10:23:49","2022-03-25 10:37:46","Fairfield Ave & Roosevelt Rd","KA1504000102","Pulaski Rd & Congress Pkwy","535",41.866622448,-87.694558263,41.874325,-87.725704,"casual"
"9DCC3A14A88085BE","docked_bike","2022-03-13 16:32:37","2022-03-13 16:51:52","Clark St & Ida B Wells Dr","TA1305000009","Burnham Harbor","15545",41.875933,-87.630585,41.856268,-87.613348,"casual"
"DC1EEA111188A214","docked_bike","2022-03-12 09:17:17","2022-03-12 09:30:12","Harper Ave & 59th St","KA1503000070","Museum of Science and Industry","KA1503000074",41.787943,-87.588315,41.791728,-87.583945,"casual"
"01F893E2A47EA9D2","electric_bike","2022-03-14 17:18:13","2022-03-14 17:23:24","Ogden Ave & Race Ave","13194","Ogden Ave & Race Ave","13194",41.8917775,-87.6587833333333,41.891795,-87.658751,"casual"
"CFC501E6D7CBCC2B","classic_bike","2022-03-02 08:50:06","2022-03-02 08:58:19","Wood St & Milwaukee Ave","13221","Wood St & Hubbard St","13432",41.907655,-87.672552,41.889899,-87.671473,"member"
"2459A1BC58D342DD","classic_bike","2022-03-30 08:39:49","2022-03-30 08:43:33","State St & Randolph St","TA1305000029","Franklin St & Lake St","TA1307000111",41.8846210725794,-87.6278342306614,41.885837,-87.6355,"member"
"72CCA92669FDC135","classic_bike","2022-03-05 17:31:57","2022-03-05 17:40:48","Clark St & Drummond Pl","TA1307000142","Sheffield Ave & Fullerton Ave","TA1306000016",41.931248,-87.644336,41.9256018819,-87.6537080423,"member"
"3FCA385DB37E1EEB","classic_bike","2022-03-19 21:10:02","2022-03-19 21:16:11","Desplaines St & Randolph St","15535","Clinton St & Jackson Blvd","638",41.88461618962,-87.6445705849,41.8783166118307,-87.6409810781479,"member"
"08D3C4B0D212A8DC","classic_bike","2022-03-05 18:34:32","2022-03-05 18:54:38","Sedgwick St & Huron St","TA1307000062","Ashland Ave & Wrightwood Ave","13296",41.894666,-87.638437,41.92883,-87.668507,"member"
"19D8011705758BBC","classic_bike","2022-03-26 15:41:18","2022-03-26 15:45:57","Southport Ave & Roscoe St","13071","Southport Ave & Wellington Ave","TA1307000006",41.943739,-87.66402,41.935733,-87.663576,"member"
"B05609F2F5BC79CD","classic_bike","2022-03-20 19:41:08","2022-03-20 19:52:08","Canal St & Adams St","13011","Michigan Ave & Lake St","TA1305000011",41.879255,-87.639904,41.886024,-87.624117,"member"
"855C51BCA8060C12","docked_bike","2022-03-21 10:21:42","2022-03-21 10:50:50","Sangamon St & Washington Blvd","13409","Eckhart Park","13289",41.883165,-87.6511,41.896373,-87.660984,"casual"
"9D13ADD14E06F867","electric_bike","2022-03-28 16:01:26","2022-03-28 16:14:50","Ravenswood Ave & Berteau Ave","TA1309000018","Racine Ave & Fullerton Ave","TA1306000026",41.9578881666667,-87.6735438333333,41.92556258,-87.65840426,"casual"
"9D0C8A95691B0A3A","electric_bike","2022-03-25 06:07:20","2022-03-25 06:11:38","Ashland Ave & Wrightwood Ave","13296","Sheffield Ave & Fullerton Ave","TA1306000016",41.928857,-87.6686028333333,41.9256018819,-87.6537080423,"member"
"077CD3ADBE1871BF","classic_bike","2022-03-17 12:13:07","2022-03-17 12:20:49","Loomis St & Lexington St","13332","900 W Harrison St","13028",41.872187,-87.661501,41.874754,-87.649807,"member"
"8C5EC537F3F2AAC0","classic_bike","2022-03-25 06:44:57","2022-03-25 06:57:28","Milwaukee Ave & Grand Ave","13033","Paulina St & Flournoy St","KA1504000104",41.891578,-87.648384,41.87295,-87.66913,"member"
"5A66A5DDEE4FE900","electric_bike","2022-03-15 19:26:56","2022-03-15 19:33:58","Ravenswood Ave & Irving Park Rd","TA1307000149","Clark St & Newport St","632",41.9545475,-87.673888,41.94454,-87.654678,"member"
"1B07389B2021B05A","classic_bike","2022-03-07 09:32:18","2022-03-07 09:40:48","Cornell Ave & Hyde Park Blvd","KA1503000007","University Ave & 57th St","KA1503000071",41.802406,-87.586924,41.791478,-87.599861,"member"
"D45FD6973BC8737D","classic_bike","2022-03-05 19:56:57","2022-03-05 20:13:05","Michigan Ave & Washington St","13001","LaSalle St & Illinois St","13430",41.8839840647265,-87.6246839761734,41.890762,-87.631697,"casual"
"90ED004EE603EAE8","classic_bike","2022-03-25 10:33:08","2022-03-25 10:38:52","Kimbark Ave & 53rd St","TA1309000037","Ellis Ave & 55th St","KA1504000076",41.799568,-87.594747,41.79430062054,-87.6014497734,"member"
"56019A7599216218","electric_bike","2022-03-14 23:58:41","2022-03-15 00:42:47","Campbell Ave & North Ave","13257","","",41.910557508,-87.689540982,41.91,-87.69,"casual"
"ACC3E1205D389F2B","electric_bike","2022-03-10 14:14:06","2022-03-10 14:15:38","","","","",41.92,-87.7,41.92,-87.7,"member"
"EC95BB998471D176","electric_bike","2022-03-01 11:26:18","2022-03-01 11:39:42","Ritchie Ct & Banks St","KA1504000134","Ashland Ave & Division St","13061",41.9070006666667,-87.6262245,41.90345,-87.667747,"member"
"5DB4272DFAFFB4C7","electric_bike","2022-03-09 09:18:51","2022-03-09 09:35:44","Michigan Ave & Madison St","13036","Wells St & Elm St","KA1504000135",41.8818288333333,-87.6250246666667,41.903222,-87.634324,"casual"
"6859756761CDBF58","electric_bike","2022-03-06 14:38:17","2022-03-06 14:49:32","Long & Irving Park","398","","",41.95,-87.76,41.95,-87.77,"member"
"2D78651EDE5C69B5","electric_bike","2022-03-16 18:26:37","2022-03-16 18:34:55","Dearborn Pkwy & Delaware Pl","TA1307000128","Orleans St & Merchandise Mart Plaza","TA1305000022",41.8988898333333,-87.6298051666667,41.888243,-87.63639,"casual"
"36960E410E7DCFF5","classic_bike","2022-03-05 20:26:47","2022-03-05 20:34:34","Wells St & Huron St","TA1306000012","Clybourn Ave & Division St","TA1307000115",41.894722,-87.634362,41.904613,-87.640552,"member"
"84783A67F4A1CA5B","electric_bike","2022-03-24 13:23:50","2022-03-24 13:33:25","","","N Southport Ave & W Newport Ave","20257.0",41.94,-87.64,41.94,-87.66,"member"
"5AF76E2C8D550940","electric_bike","2022-03-08 08:43:42","2022-03-08 09:00:34","","","","",41.82,-87.7,41.79,-87.74,"member"
"AC5E1F138F5FAD60","classic_bike","2022-03-01 08:01:13","2022-03-01 08:06:38","Kildare Ave & Montrose Ave","KA1706005015","Drake Ave & Montrose Ave","KA1504000097",41.96108,-87.73569,41.96115407569,-87.7165690733,"member"
"B7DDC87041EB1BA4","classic_bike","2022-03-17 18:38:04","2022-03-17 19:20:05","Milwaukee Ave & Grand Ave","13033","Clark St & Bryn Mawr Ave","KA1504000151",41.891578,-87.648384,41.983593,-87.669154,"member"
"AE42F126AB7468E4","classic_bike","2022-03-20 13:39:51","2022-03-20 13:48:57","Ashland Ave & Division St","13061","Ashland Ave & Grand Ave","13434",41.90345,-87.667747,41.891072,-87.666611,"casual"
"9B40F7E952975F9E","electric_bike","2022-03-11 17:21:17","2022-03-11 17:26:53","Aberdeen St & Randolph St","18062","Clinton St & Madison St","TA1305000032",41.884157,-87.6543203333333,41.882242,-87.641066,"member"
"64811A2E12565015","classic_bike","2022-03-28 05:07:18","2022-03-28 05:21:37","Halsted St & Dickens Ave","13192","Michigan Ave & Oak St","13042",41.919936,-87.64883,41.90096039,-87.62377664,"member"
"48893176E70522AD","classic_bike","2022-03-11 19:23:49","2022-03-11 19:32:24","Paulina St & Flournoy St","KA1504000104","Loomis St & Jackson Blvd","13206",41.87295,-87.66913,41.877945,-87.662007,"member"
"BFBD3E7C53DE8073","electric_bike","2022-03-06 10:31:49","2022-03-06 10:35:05","","","Larrabee St & Oak St","KA1504000116",41.91,-87.65,41.90021949323,-87.6429854676,"member"
"FA18962253A28794","electric_bike","2022-03-16 15:59:14","2022-03-16 16:09:36","Morgan St & Polk St","TA1307000130","Desplaines St & Jackson Blvd","15539",41.8720215,-87.6509825,41.8781189009123,-87.6439476013184,"casual"
"53A3812988F36ECD","electric_bike","2022-03-04 11:00:32","2022-03-04 11:07:47","","","","",41.88,-87.66,41.89,-87.67,"member"
"FEDFDDB8FEB2D5EA","classic_bike","2022-03-21 15:18:42","2022-03-21 15:54:33","DuSable Lake Shore Dr & Monroe St","13300","Clark St & Schiller St","TA1309000024",41.880958,-87.616743,41.907993,-87.631501,"casual"
"45D7A1598CBA7C43","classic_bike","2022-03-08 08:45:50","2022-03-08 08:48:42","Lincoln Ave & Diversey Pkwy","TA1307000064","Racine Ave & Fullerton Ave","TA1306000026",41.932225,-87.658617,41.92556258,-87.65840426,"member"
"C82FEB510728A1D4","classic_bike","2022-03-15 13:48:50","2022-03-15 13:53:59","Sheffield Ave & Waveland Ave","TA1307000126","Sheridan Rd & Buena Ave","TA1309000027",41.949399,-87.654529,41.958494,-87.654966,"member"
"2AA0606C0C2946D3","electric_bike","2022-03-05 16:10:29","2022-03-05 16:25:20","Milwaukee Ave & Wabansia Ave","13243","","",41.912632,-87.681303,41.92,-87.72,"casual"
"BB85B0404B004646","classic_bike","2022-03-01 15:17:07","2022-03-01 15:24:52","Halsted St & Roosevelt Rd","TA1305000017","Clinton St & Jackson Blvd","638",41.867324,-87.648625,41.8783166118307,-87.6409810781479,"casual"
"8C82C5CAEB089160","classic_bike","2022-03-05 16:33:25","2022-03-05 16:46:32","Big Marsh Park","20232","Big Marsh Park","20232",41.6858770556233,-87.573823928833,41.6858770556233,-87.573823928833,"member"
"DE9B86535B0C51F7","classic_bike","2022-03-01 17:34:24","2022-03-01 17:39:34","Rush St & Hubbard St","KA1503000044","Kingsbury St & Kinzie St","KA1503000043",41.890173,-87.626185,41.88917683258,-87.6385057718,"casual"
"6F3001202022476A","classic_bike","2022-03-26 10:02:55","2022-03-26 10:05:35","LaSalle Dr & Huron St","KP1705001026","Franklin St & Chicago Ave","13017",41.894877,-87.632326,41.8967469730938,-87.6356676220894,"member"
"FEE3200953BDAE3F","classic_bike","2022-03-18 13:07:27","2022-03-18 13:14:23","Southport Ave & Waveland Ave","13235","Clark St & Wellington Ave","TA1307000136",41.94815,-87.66394,41.9364968219,-87.6475386582,"casual"
"AD999F5E967A1C73","classic_bike","2022-03-17 08:12:23","2022-03-17 08:15:10","Millennium Park","13008","Dearborn St & Adams St","TA1305000005",41.8810317,-87.62408432,41.8793563587,-87.6297910363,"member"
"4357298F00F2260E","electric_bike","2022-03-22 14:22:32","2022-03-22 14:35:37","","","","",41.87,-87.69,41.9,-87.69,"member"
"95B2A7179F789CF1","electric_bike","2022-03-14 17:56:12","2022-03-14 17:58:27","","","Clarendon Ave & Leland Ave","TA1307000119",41.97,-87.65,41.967968,-87.650001,"member"
"08AA73029897B08C","classic_bike","2022-03-01 14:46:59","2022-03-01 14:48:29","Throop St & Taylor St","13139","May St & Taylor St","13160",41.868968,-87.659141,41.8694821,-87.6554864,"member"
"0153EDDC14E03E55","electric_bike","2022-03-09 10:10:05","2022-03-09 10:17:35","Larrabee St & Kingsbury St","TA1306000009","Franklin St & Monroe St","TA1309000007",41.8975596666667,-87.6430436666667,41.880317,-87.635185,"member"
"315862B678F5FC40","electric_bike","2022-03-10 16:44:47","2022-03-10 17:02:50","","","Mies van der Rohe Way & Chicago Ave","13338",41.92,-87.64,41.8969446263708,-87.6217576861382,"member"
"E01004FAC5024314","electric_bike","2022-03-02 17:05:33","2022-03-02 17:08:40","","","","",41.95,-87.74,41.95,-87.74,"casual"
"2F2416AAA357739E","classic_bike","2022-03-05 09:43:52","2022-03-05 09:59:49","Racine Ave & 18th St","13164","Green St & Randolph St","13053",41.858166,-87.656495,41.8831813059739,-87.6487246155739,"casual"
"6DEE33799D54294C","electric_bike","2022-03-25 16:16:58","2022-03-25 16:22:50","","","Michigan Ave & Lake St","TA1305000011",41.88,-87.63,41.886024,-87.624117,"member"
"32A64A858C2758FD","classic_bike","2022-03-28 17:48:32","2022-03-28 17:59:14","Kimball Ave & Belmont Ave","KA150400009X","Spaulding Ave & Armitage Ave","15650",41.939398,-87.711561,41.9171080347893,-87.7102209627628,"member"
"36D9075E06E622EA","classic_bike","2022-03-05 17:57:34","2022-03-05 18:19:04","Leavitt St & Division St","658","California Ave & Milwaukee Ave","13084",41.902997,-87.683825,41.922695,-87.697153,"casual"
"1F149D16FF7C632F","classic_bike","2022-03-13 15:49:16","2022-03-13 16:12:54","LaSalle Dr & Huron St","KP1705001026","Sheffield Ave & Willow St","TA1306000032",41.894877,-87.632326,41.913688,-87.652855,"casual"
"661A64E373930C8B","classic_bike","2022-03-15 09:51:22","2022-03-15 09:55:17","Throop St & Taylor St","13139","Morgan St & Polk St","TA1307000130",41.868968,-87.659141,41.871737,-87.65103,"member"
"B54E95D1F6292DE4","classic_bike","2022-03-09 16:05:00","2022-03-09 16:17:41","Rush St & Hubbard St","KA1503000044","Clinton St & Madison St","TA1305000032",41.890173,-87.626185,41.882242,-87.641066,"member"
"F244390215C7DDE8","classic_bike","2022-03-16 17:15:38","2022-03-16 17:39:59","DuSable Lake Shore Dr & Wellington Ave","TA1307000041","Lincoln Park Conservatory","LP-",41.9366884494997,-87.6368290185928,41.9239313113662,-87.6358245313168,"member"
"6A01CE562812B64F","electric_bike","2022-03-24 12:56:02","2022-03-24 13:17:21","","","Halsted St & 47th Pl","KA1503000051",41.81,-87.67,41.80813391481,-87.6456165545,"member"
"59E7A4655242A1BC","electric_bike","2022-03-09 18:25:49","2022-03-09 18:32:47","Milwaukee Ave & Grand Ave","13033","Damen Ave & Grand Ave","TA1308000006",41.8915006666667,-87.6482558333333,41.8912643464815,-87.676842212677,"casual"
"55ABEE0D362AED59","electric_bike","2022-03-09 15:29:07","2022-03-09 15:45:17","Bernard St & Elston Ave","18016","","",41.9498943333333,-87.7139638333333,41.92,-87.67,"member"
"CA705F9841FC26C7","electric_bike","2022-03-05 10:46:29","2022-03-05 10:56:57","May St & Cullerton St","13331","Indiana Ave & 26th St","TA1307000005",41.8552388333333,-87.654158,41.845687,-87.622481,"member"
"C2BDF4C3F1A4F2BC","classic_bike","2022-03-22 18:22:50","2022-03-22 18:28:57","Larrabee St & Kingsbury St","TA1306000009","Dayton St & North Ave","13058",41.897764,-87.642884,41.9105780349,-87.6494219288,"casual"
"F975BC3EDBB824C5","electric_bike","2022-03-09 11:03:15","2022-03-09 11:07:21","","","","",41.78,-87.6,41.79,-87.6,"member"
"85824C0A358362EC","classic_bike","2022-03-21 19:12:25","2022-03-21 19:19:48","Southport Ave & Roscoe St","13071","Ravenswood Ave & Irving Park Rd","TA1307000149",41.943739,-87.66402,41.95469,-87.67393,"member"
"EB174C47A9AD1039","electric_bike","2022-03-25 17:51:51","2022-03-25 18:01:34","","","","",41.94,-87.7,41.97,-87.71,"member"
"B3D73EE145218317","classic_bike","2022-03-27 16:23:07","2022-03-27 16:28:49","Kimbark Ave & 53rd St","TA1309000037","Ellis Ave & 55th St","KA1504000076",41.799568,-87.594747,41.79430062054,-87.6014497734,"member"
"FE816BFB7648E85C","classic_bike","2022-03-05 13:39:47","2022-03-05 13:50:03","Clybourn Ave & Division St","TA1307000115","Sedgwick St & Schiller St","TA1307000143",41.904613,-87.640552,41.907626,-87.638566,"member"
"25750DAD21AC3481","electric_bike","2022-03-24 05:42:12","2022-03-24 05:47:20","Stetson Ave & South Water St","TA1308000029","Franklin St & Adams St (Temp)","TA1309000008",41.886831284,-87.622540474,41.8794340914001,-87.6355040073395,"member"
"F48346C987217DD2","docked_bike","2022-03-20 22:17:30","2022-03-20 23:17:51","Michigan Ave & Washington St","13001","Wabash Ave & Grand Ave","TA1307000117",41.883984,-87.624684,41.891466,-87.626761,"casual"
"CF063C563102B695","electric_bike","2022-03-17 09:32:42","2022-03-17 09:48:12","","","","",41.95,-87.78,41.95,-87.72,"member"
"BC076841AFC895BB","classic_bike","2022-03-15 18:11:18","2022-03-15 18:32:54","Laramie Ave & Gladys Ave","543","Laramie Ave & Gladys Ave","543",41.875806,-87.755285,41.875806,-87.755285,"casual"
"0D573C7638D9CE69","classic_bike","2022-03-05 15:41:03","2022-03-05 16:09:48","Lincoln Park Conservatory","LP-","Mies van der Rohe Way & Chestnut St","15529",41.9239313113662,-87.6358245313168,41.8985866514,-87.6219152258,"casual"
"DE402F23DCDA49CA","classic_bike","2022-03-05 00:04:04","2022-03-05 00:18:47","Walsh Park","18067","Clark St & Wrightwood Ave","TA1305000014",41.91461,-87.667968,41.929546,-87.643118,"casual"
"9E64FF80AA86CAE2","classic_bike","2022-03-05 18:29:56","2022-03-05 18:41:32","Michigan Ave & 8th St","623","Millennium Park","13008",41.872773,-87.623981,41.8810317,-87.62408432,"casual"
"8BB94ED241711E56","classic_bike","2022-03-03 13:27:16","2022-03-03 13:30:25","Columbus Dr & Randolph St","13263","State St & Randolph St","TA1305000029",41.884728,-87.619521,41.8846210725794,-87.6278342306614,"casual"
"ACAA447E686D50FF","classic_bike","2022-03-28 09:02:20","2022-03-28 09:07:22","Sedgwick St & North Ave","TA1307000038","Sheffield Ave & Willow St","TA1306000032",41.911386,-87.638677,41.913688,-87.652855,"member"
"3D2DCB8A5FBCA928","electric_bike","2022-03-09 07:38:25","2022-03-09 07:42:17","Lincoln Ave & Diversey Pkwy","TA1307000064","Sheffield Ave & Fullerton Ave","TA1306000016",41.9321191666667,-87.6585701666667,41.9256018819,-87.6537080423,"member"
"A199586ED81B6F38","classic_bike","2022-03-05 14:28:00","2022-03-05 14:37:10","DuSable Lake Shore Dr & Wellington Ave","TA1307000041","Theater on the Lake","TA1308000001",41.9366884494997,-87.6368290185928,41.926277,-87.630834,"member"
"6FCE143C3B818A7A","classic_bike","2022-03-20 10:59:55","2022-03-20 11:31:16","Lake Park Ave & 56th St","TA1309000063","Ewing Ave & Burnham Greenway","20223",41.793242,-87.587782,41.712748761095,-87.5348138809204,"member"
"5736BAB9B838FE22","docked_bike","2022-03-16 16:43:24","2022-03-16 17:51:53","Sheridan Rd & Loyola Ave","RP-009","Michigan Ave & Oak St","13042",42.001044,-87.661198,41.90096,-87.623777,"casual"
"E3B19E28A3CB8C3D","classic_bike","2022-03-31 18:55:15","2022-03-31 19:05:46","Clark St & Wrightwood Ave","TA1305000014","Lincoln Ave & Belmont Ave","TA1309000042",41.929546,-87.643118,41.939365,-87.668385,"member"
"0DA81C4EC4AAA22B","classic_bike","2022-03-28 08:32:40","2022-03-28 08:57:58","Larrabee St & Armitage Ave","TA1309000006","Dearborn St & Monroe St","TA1305000006",41.918084,-87.643749,41.881319815,-87.6295209193,"member"
"6160864DCA4416A8","classic_bike","2022-03-01 17:23:03","2022-03-01 17:26:33","Sheridan Rd & Loyola Ave","RP-009","Sheridan Rd & Columbia Ave","660",42.00104377979,-87.6611982433,42.004583,-87.661406,"member"
"8E228992944F208D","classic_bike","2022-03-23 11:05:54","2022-03-23 11:21:06","Mies van der Rohe Way & Chestnut St","15529","Clark St & Wrightwood Ave","TA1305000014",41.8985866514,-87.6219152258,41.929546,-87.643118,"member"
"F85C6EB3AA73D48A","electric_bike","2022-03-28 06:33:50","2022-03-28 06:42:56","Noble St & Milwaukee Ave","13290","Fairbanks St & Superior St","18003",41.900725,-87.6625948333333,41.895748,-87.620104,"member"
"8B31056252EA47A7","classic_bike","2022-03-05 18:03:35","2022-03-05 18:15:52","DuSable Lake Shore Dr & Belmont Ave","TA1309000049","Sheridan Rd & Montrose Ave","TA1307000107",41.940775,-87.639192,41.96167,-87.65464,"member"
"BDBBA9A5D361E883","electric_bike","2022-03-09 11:53:08","2022-03-09 12:00:14","","","","",41.79,-87.6,41.8,-87.59,"member"
"9A946422A2AF4A2A","electric_bike","2022-03-16 22:51:55","2022-03-16 22:53:40","","","","",41.93,-87.73,41.93,-87.73,"casual"
"AFD7BFDB67BC2262","classic_bike","2022-03-21 18:43:15","2022-03-21 19:12:38","Sedgwick St & North Ave","TA1307000038","Sheffield Ave & Kingsbury St","13154",41.911386,-87.638677,41.910522,-87.653106,"member"
"03FCB9DA8E88AFF3","classic_bike","2022-03-14 18:05:34","2022-03-14 18:46:47","Racine Ave & Belmont Ave","TA1308000019","Wilton Ave & Belmont Ave","TA1307000134",41.939743,-87.658865,41.94018,-87.65304,"member"
"A4EBF60D415C9B89","electric_bike","2022-03-26 01:03:58","2022-03-26 01:16:37","Millennium Park","13008","Mies van der Rohe Way & Chestnut St","15529",41.8812965,-87.6241115,41.8985866514,-87.6219152258,"casual"
"02B59A1E3443EF89","electric_bike","2022-03-30 08:04:04","2022-03-30 08:08:39","Racine Ave & Washington Blvd","654","Clinton St & Madison St","TA1305000032",41.8830975,-87.6571081666667,41.882242,-87.641066,"member"
"5FE715B43D281786","classic_bike","2022-03-16 14:42:51","2022-03-16 15:58:35","Buckingham Fountain","15541","Buckingham Fountain","15541",41.8765351944122,-87.62047290802,41.8765351944122,-87.62047290802,"casual"
"268CC712CF33287C","classic_bike","2022-03-17 19:41:03","2022-03-17 19:50:54","LaSalle St & Adams St","KA1503000034","Loomis St & Lexington St","13332",41.87934437346,-87.6319852213,41.872187,-87.661501,"member"
"F8B3D32486D67C85","electric_bike","2022-03-05 16:48:15","2022-03-05 16:55:54","Halsted St & Roscoe St","TA1309000025","Southport Ave & Waveland Ave","13235",41.9437211666667,-87.6488703333333,41.94815,-87.66394,"casual"
"9E0D25EC847D0B39","classic_bike","2022-03-05 18:55:39","2022-03-05 19:23:24","Larrabee St & Oak St","KA1504000116","Rush St & Hubbard St","KA1503000044",41.90021949323,-87.6429854676,41.890173,-87.626185,"member"
"0556DC2BBF7B00A7","electric_bike","2022-03-30 17:02:49","2022-03-30 17:10:17","","","","",41.79,-87.6,41.8,-87.59,"member"
"F8DCB397266D41C5","electric_bike","2022-03-14 15:30:59","2022-03-14 15:37:47","","","","",41.91,-87.78,41.91,-87.8,"casual"
"75A4A7C1706D00CF","classic_bike","2022-03-25 16:06:07","2022-03-25 16:12:15","DuSable Lake Shore Dr & North Blvd","LF-005","Clark St & North Ave","13128",41.911722,-87.626804,41.911974,-87.631942,"member"
"C930CD718DB78C4E","electric_bike","2022-03-21 20:25:57","2022-03-21 20:52:51","Spaulding Ave & Armitage Ave","15650","Blue Island Ave & 18th St","13135",41.9171138333333,-87.7101515,41.857556,-87.661535,"casual"
"194B88020588FA1B","classic_bike","2022-03-23 18:27:04","2022-03-23 18:36:52","Wells St & Concord Ln","TA1308000050","Sheffield Ave & Webster Ave","TA1309000033",41.912133,-87.634656,41.92154,-87.653818,"casual"
"3EF6F7408A17E77A","classic_bike","2022-03-01 12:11:55","2022-03-01 12:18:10","Clark St & Lake St","KA1503000012","Franklin St & Illinois St","RN-",41.88602082773,-87.6308760584,41.8910233102519,-87.6354798674583,"member"
"0C6C7EFA43D7D3A6","electric_bike","2022-03-29 13:45:37","2022-03-29 13:53:22","University Ave & 57th St","KA1503000071","","",41.7914823333333,-87.6000933333333,41.79,-87.6,"casual"
"62982900EED30201","electric_bike","2022-03-20 20:11:31","2022-03-20 20:20:26","","","Lincoln Park Conservatory","LP-",41.93,-87.65,41.9239313113662,-87.6358245313168,"casual"
"C9396B03A8DD1CD9","classic_bike","2022-03-05 10:26:37","2022-03-05 10:36:26","Sheffield Ave & Waveland Ave","TA1307000126","Broadway & Waveland Ave","13325",41.949399,-87.654529,41.949074,-87.648636,"member"
"0FEB7B3F18095427","electric_bike","2022-03-05 22:01:26","2022-03-05 22:21:17","Sheffield Ave & Wrightwood Ave","TA1309000023","","",41.9287583333333,-87.653835,41.96,-87.71,"casual"
"679B676F095BD11F","classic_bike","2022-03-06 10:26:44","2022-03-06 10:28:40","Blue Island Ave & 18th St","13135","Laflin St & Cullerton St","13307",41.857556,-87.661535,41.8549145757657,-87.6635599136353,"casual"
"9D1E1C415FD6765B","classic_bike","2022-03-02 11:36:14","2022-03-02 11:39:40","Ada St & Washington Blvd","13353","Aberdeen St & Randolph St","18062",41.88283,-87.661206,41.884114,-87.654264,"member"
"3E8B633BD5513424","electric_bike","2022-03-15 02:45:59","2022-03-15 03:03:50","","","","",41.92,-87.72,41.95,-87.69,"member"
"075EF343053BA8A2","classic_bike","2022-03-04 05:51:24","2022-03-04 06:01:54","Loomis St & Jackson Blvd","13206","Franklin St & Jackson Blvd","TA1305000025",41.877945,-87.662007,41.8777079559,-87.6353211408,"member"
"A151A70B8E4BEB61","classic_bike","2022-03-09 17:59:31","2022-03-09 18:17:53","Wells St & Hubbard St","TA1307000151","Sedgwick St & Webster Ave","13191",41.889906,-87.634266,41.922167,-87.638888,"member"
"60976A1602D0E992","electric_bike","2022-03-16 19:30:24","2022-03-16 19:31:21","Sangamon St & Washington Blvd","13409","Green St & Madison St","TA1307000120",41.8830771666667,-87.6512035,41.881892,-87.648789,"member"
"48A6D346C6AF2737","electric_bike","2022-03-21 20:38:09","2022-03-21 20:47:03","","","","",41.89,-87.63,41.88,-87.63,"casual"
"B0B028809EDB99B7","classic_bike","2022-03-02 21:03:54","2022-03-02 21:12:39","Clark St & Newport St","632","DuSable Lake Shore Dr & Diversey Pkwy","TA1309000039",41.94454,-87.654678,41.932588,-87.636427,"member"
"0FC92247640A8FBD","classic_bike","2022-03-08 11:04:17","2022-03-08 11:35:47","Clarendon Ave & Gordon Ter","13379","State St & Chicago Ave","21544",41.9578665241517,-87.6495051383972,41.8966172004075,-87.628578543663,"member"
"8DB529D345063617","electric_bike","2022-03-20 00:16:32","2022-03-20 00:24:58","Broadway & Sheridan Rd","13323","","",41.952782,-87.650043,41.97,-87.67,"member"
"415CD5C218F5507A","electric_bike","2022-03-12 11:43:47","2022-03-12 11:48:20","","","","",41.78,-87.59,41.79,-87.59,"member"
"8F1F0BD8B1FFA797","classic_bike","2022-03-07 18:33:21","2022-03-07 18:40:57","Prairie Ave & 43rd St","KA1503000027","Cottage Grove Ave & 43rd St","TA1308000023",41.81665889302,-87.6194124619,41.816499,-87.606582,"member"
"000BEA0FE0809EDE","electric_bike","2022-03-24 19:38:38","2022-03-24 19:45:02","State St & Randolph St","TA1305000029","State St & Chicago Ave","21544",41.8845251666667,-87.6278143333333,41.8966172004075,-87.628578543663,"member"
"1D167ECECEA75718","electric_bike","2022-03-12 19:14:56","2022-03-12 19:29:21","Wolcott Ave & Polk St","TA1309000064","Wolcott Ave & Polk St","TA1309000064",41.8713325,-87.6736675,41.871262,-87.673688,"member"
"7CB0460686707FC7","classic_bike","2022-03-08 11:50:29","2022-03-08 11:56:15","Ashland Ave & Grand Ave","13434","Ada St & Washington Blvd","13353",41.891072,-87.666611,41.88283,-87.661206,"casual"
"26EAB7BF67D5EC41","electric_bike","2022-03-16 17:38:21","2022-03-16 18:10:42","Sheffield Ave & Waveland Ave","TA1307000126","Theater on the Lake","TA1308000001",41.9491918333333,-87.6544308333333,41.926277,-87.630834,"casual"
"34675406261BDE6C","electric_bike","2022-03-08 14:00:54","2022-03-08 14:10:14","LaSalle St & Washington St","13006","Wabash Ave & 16th St","SL-012",41.8824915,-87.6323845,41.860384,-87.625813,"member"
"1A6D5BE45CC5662E","electric_bike","2022-03-09 16:47:56","2022-03-09 16:56:38","","","","",41.9,-87.69,41.93,-87.69,"casual"
"B9B9EF5F41AAD183","classic_bike","2022-03-10 08:20:18","2022-03-10 08:26:12","Wells St & Huron St","TA1306000012","LaSalle St & Washington St","13006",41.894722,-87.634362,41.882664,-87.63253,"member"
"A9FB55144AA13E74","electric_bike","2022-03-16 13:50:11","2022-03-16 14:00:39","LaSalle St & Jackson Blvd","TA1309000004","Dearborn Pkwy & Delaware Pl","TA1307000128",41.8782141666667,-87.631305,41.898969,-87.629912,"member"
"36818BFEB5E29EBB","classic_bike","2022-03-21 15:53:30","2022-03-21 16:11:42","Clifton Ave & Armitage Ave","TA1307000163","Aberdeen St & Monroe St","13156",41.918216,-87.656936,41.880419,-87.655519,"member"
"C11835904816C125","electric_bike","2022-03-29 08:41:27","2022-03-29 08:44:07","","","","",41.96,-87.73,41.95,-87.73,"member"
"5255CF113AFE5E26","classic_bike","2022-03-30 08:10:16","2022-03-30 08:19:14","Dearborn St & Monroe St","TA1305000006","Wabash Ave & Roosevelt Rd","TA1305000002",41.881319815,-87.6295209193,41.867227,-87.625961,"member"
"1FAA3D1BC286EB5F","electric_bike","2022-03-16 15:47:10","2022-03-16 15:51:53","","","","",41.92,-87.7,41.92,-87.69,"member"
"DBB18BFF3C18DAF2","electric_bike","2022-03-27 12:33:57","2022-03-27 13:18:27","","","","",41.92,-87.69,41.92,-87.69,"casual"
"575D986B186A493A","electric_bike","2022-03-02 07:53:06","2022-03-02 08:16:49","Michigan Ave & Oak St","13042","Michigan Ave & Oak St","13042",41.900974989,-87.623764753,41.90096039,-87.62377664,"member"
"78E22378BCB74229","classic_bike","2022-03-13 17:12:00","2022-03-13 17:38:16","Montrose Harbor","TA1308000012","Montrose Harbor","TA1308000012",41.963982,-87.638181,41.963982,-87.638181,"member"
"FD28766BB5C70760","electric_bike","2022-03-31 17:30:40","2022-03-31 17:47:27","Kingsbury St & Kinzie St","KA1503000043","Leavitt St & Armitage Ave","TA1309000029",41.889231,-87.6385941666667,41.917805,-87.682437,"member"
"F1A9001A62894068","electric_bike","2022-03-22 10:40:19","2022-03-22 10:52:11","Clark St & Schiller St","TA1309000024","","",41.908132,-87.6314746666667,41.89,-87.65,"casual"
"E00BA84357FEF393","electric_bike","2022-03-17 08:19:37","2022-03-17 08:20:31","Kingsbury St & Kinzie St","KA1503000043","Kingsbury St & Kinzie St","KA1503000043",41.8892311666667,-87.6385461666667,41.88917683258,-87.6385057718,"member"
"B953B510936513B3","classic_bike","2022-03-16 08:01:52","2022-03-16 08:21:59","Sheffield Ave & Willow St","TA1306000032","Clark St & Randolph St","TA1305000030",41.913688,-87.652855,41.884576228,-87.63188991,"member"
"F6D5B9D784FB8635","classic_bike","2022-03-17 21:48:42","2022-03-17 22:28:09","Wabash Ave & Cermak Rd","TA1305000001","Fairbanks St & Superior St","18003",41.852619,-87.626488,41.895748,-87.620104,"casual"
"442A04BF2445FB69","classic_bike","2022-03-04 11:21:58","2022-03-04 11:32:22","LaSalle St & Illinois St","13430","Ogden Ave & Chicago Ave","TA1305000020",41.890762,-87.631697,41.896362458,-87.6540612729,"member"
"62CCBE142C622525","electric_bike","2022-03-02 03:07:03","2022-03-02 03:11:31","Western Ave & Walton St","KA1504000103","California Ave & Cortez St","17660",41.8983875,-87.68652,41.900363,-87.696704,"casual"
"2ABB644802B4530F","classic_bike","2022-03-20 14:52:13","2022-03-20 16:15:57","Chicago Ave & Sheridan Rd","E008","Chicago Ave & Sheridan Rd","E008",42.050491,-87.677821,42.050491,-87.677821,"casual"
"FEF90C7E1E90D892","classic_bike","2022-03-08 14:53:11","2022-03-08 15:03:46","Wells St & Hubbard St","TA1307000151","Rush St & Cedar St","KA1504000133",41.889906,-87.634266,41.90230870122,-87.627690528,"member"
"7B3163E89AB5192F","classic_bike","2022-03-05 13:57:08","2022-03-05 14:12:13","Clark St & Wellington Ave","TA1307000136","Wells St & Concord Ln","TA1308000050",41.9364968219,-87.6475386582,41.912133,-87.634656,"casual"
"8442819D3FD960B9","electric_bike","2022-03-10 18:04:07","2022-03-10 18:16:23","Stetson Ave & South Water St","TA1308000029","Clark St & North Ave","13128",41.8865758333333,-87.622155,41.911974,-87.631942,"member"
"EC5701AD7AFC82EF","classic_bike","2022-03-05 12:55:38","2022-03-05 13:05:07","Franklin St & Chicago Ave","13017","DuSable Lake Shore Dr & North Blvd","LF-005",41.8967469730938,-87.6356676220894,41.911722,-87.626804,"casual"
"DEA05E1F536F5362","classic_bike","2022-03-16 07:14:47","2022-03-16 07:30:41","Fairbanks Ct & Grand Ave","TA1305000003","Clinton St & Washington Blvd","WL-012",41.8918473721099,-87.6205801963806,41.88338,-87.64117,"member"
"FD112CD8367F263A","classic_bike","2022-03-05 15:22:47","2022-03-05 16:15:14","Larrabee St & North Ave","TA1306000008","Dusable Harbor","KA1503000064",41.91021,-87.6435,41.886976,-87.612813,"casual"
"B8B959181A01B283","classic_bike","2022-03-22 17:27:58","2022-03-22 17:51:46","Kedzie Ave & Palmer Ct","13292","Sheffield Ave & Webster Ave","TA1309000033",41.921525,-87.707322,41.92154,-87.653818,"member"
"BAF438258F5B728E","classic_bike","2022-03-12 17:31:26","2022-03-12 17:45:37","Lincoln Ave & Waveland Ave","13253","Ravenswood Ave & Lawrence Ave","TA1309000066",41.948797,-87.675278,41.96909,-87.674237,"member"
"206264B8BD134C40","classic_bike","2022-03-14 17:57:45","2022-03-14 18:13:22","Eastlake Ter & Rogers Ave","523","Broadway & Granville Ave","15571",42.0208872805206,-87.6650579273701,41.9947796884,-87.6602845349,"member"
"C25D0E521945E042","electric_bike","2022-03-18 09:10:01","2022-03-18 09:28:37","Clark St & Wrightwood Ave","TA1305000014","","",41.9295486666667,-87.6432473333333,41.89,-87.65,"member"
"5ACF963A7255E08C","classic_bike","2022-03-25 07:05:10","2022-03-25 07:14:12","LaSalle St & Jackson Blvd","TA1309000004","Rush St & Hubbard St","KA1503000044",41.878166,-87.631929,41.890173,-87.626185,"member"
"20254E42976F28A5","classic_bike","2022-03-14 19:24:15","2022-03-14 19:28:14","Wilton Ave & Diversey Pkwy","TA1306000014","Greenview Ave & Diversey Pkwy","13294",41.932418,-87.652705,41.9325896342979,-87.6659363508224,"casual"
"8BE84932019B0C27","electric_bike","2022-03-12 10:25:18","2022-03-12 10:36:02","","","","",41.93,-87.71,41.95,-87.73,"member"
"A19035E22830F456","electric_bike","2022-03-01 20:06:31","2022-03-01 20:10:31","","","Leavitt St & North Ave","TA1308000005",41.9,-87.68,41.910509366664,-87.6823890209198,"member"
"5D0FB59549A918D6","electric_bike","2022-03-10 17:45:30","2022-03-10 17:51:58","Kedzie Ave & Milwaukee Ave","13085","","",41.9296341666667,-87.7080135,41.93,-87.72,"member"
"773397D790D90ACA","electric_bike","2022-03-17 08:54:09","2022-03-17 09:16:45","DuSable Lake Shore Dr & Belmont Ave","TA1309000049","Franklin St & Illinois St","RN-",41.9407451666667,-87.6391358333333,41.8910233102519,-87.6354798674583,"member"
"8ACC95218B6D2EE8","electric_bike","2022-03-06 15:39:16","2022-03-06 15:48:30","Orleans St & Elm St","TA1306000006","Daley Center Plaza","TA1306000010",41.90296793,-87.637705803,41.884241,-87.629634,"member"
"2718254E3A7D3CDD","electric_bike","2022-03-06 20:31:29","2022-03-06 20:39:44","Ada St & Washington Blvd","13353","Leavitt St & Chicago Ave","18058",41.8828325,-87.661197,41.895501,-87.682017,"member"
"7BEF8EC43A642FC5","electric_bike","2022-03-21 18:21:20","2022-03-21 18:35:10","","","Marine Dr & Ainslie St","KA1504000171",41.96,-87.69,41.9716,-87.650154,"member"
"2F16FFF4268DE750","electric_bike","2022-03-08 16:51:59","2022-03-08 16:54:36","Dearborn St & Monroe St","TA1305000006","Canal St & Madison St","13341",41.8812335,-87.6299375,41.882091,-87.639833,"member"
"EB9EE211640C5664","classic_bike","2022-03-04 17:19:06","2022-03-04 17:29:55","Sheffield Ave & Wrightwood Ave","TA1309000023","Walsh Park","18067",41.928712,-87.653833,41.91461,-87.667968,"member"
"6DD99B24A19F9012","classic_bike","2022-03-21 18:31:46","2022-03-21 18:44:36","DuSable Lake Shore Dr & North Blvd","LF-005","Streeter Dr & Grand Ave","13022",41.911722,-87.626804,41.892278,-87.612043,"member"
"F6B595B0E399C46D","classic_bike","2022-03-16 08:24:44","2022-03-16 08:30:55","Green St & Madison St","TA1307000120","Wacker Dr & Washington St","KA1503000072",41.881892,-87.648789,41.8831433643902,-87.6372420787811,"casual"
"C3D051EB421F07AE","classic_bike","2022-03-24 08:33:35","2022-03-24 08:33:48","Clybourn Ave & Division St","TA1307000115","Clybourn Ave & Division St","TA1307000115",41.904613,-87.640552,41.904613,-87.640552,"member"
"0F2D5E3354B7CDC3","electric_bike","2022-03-15 18:41:42","2022-03-15 18:51:48","","","","",41.92,-87.69,41.93,-87.71,"member"
"763E004DBF1772D6","electric_bike","2022-03-13 15:54:24","2022-03-13 16:04:06","","","Wells St & Huron St","TA1306000012",41.91,-87.65,41.894722,-87.634362,"member"
"86A1E1AC85833701","electric_bike","2022-03-24 11:47:37","2022-03-24 11:58:35","California Ave & Altgeld St","15646","","",41.9266696666667,-87.6977725,41.96,-87.71,"member"
"84B121880E8B0E8C","electric_bike","2022-03-28 11:39:25","2022-03-28 11:53:32","","","","",41.94,-87.72,41.93,-87.68,"casual"
"61BDA49E1E752F8E","electric_bike","2022-03-26 09:47:51","2022-03-26 09:50:14","Wells St & Concord Ln","TA1308000050","Clark St & Schiller St","TA1309000024",41.9119835,-87.634807,41.907993,-87.631501,"member"
"60E742BC8AA51356","electric_bike","2022-03-05 14:43:49","2022-03-05 14:55:49","Wells St & Elm St","KA1504000135","DuSable Lake Shore Dr & Wellington Ave","TA1307000041",41.903082371,-87.634448409,41.9366884494997,-87.6368290185928,"member"
"75E52E2BC9CCBC80","electric_bike","2022-03-29 15:47:50","2022-03-29 15:53:23","Sheffield Ave & Waveland Ave","TA1307000126","Sheridan Rd & Buena Ave","TA1309000027",41.9492403333333,-87.6544663333333,41.958494,-87.654966,"member"
"2061CFC61E80E6B7","classic_bike","2022-03-09 14:28:06","2022-03-09 14:40:29","Broadway & Cornelia Ave","13278","Broadway & Cornelia Ave","13278",41.945529,-87.646439,41.945529,-87.646439,"member"
"AB4B78520149FEA9","electric_bike","2022-03-04 16:25:07","2022-03-04 16:31:48","Halsted St & Dickens Ave","13192","Elston Ave & Cortland St","TA1305000039",41.919942498,-87.648791552,41.9164334291265,-87.6667463779449,"member"
"3F7629EDF452B53D","electric_bike","2022-03-25 08:43:46","2022-03-25 09:02:26","Campbell Ave & North Ave","13257","Lincoln Ave & Roscoe St","TA1307000138",41.9105381666667,-87.6895995,41.9437911500595,-87.671257853508,"member"
"643B65A5E9998880","electric_bike","2022-03-11 17:17:59","2022-03-11 17:25:33","","","Wilton Ave & Diversey Pkwy","TA1306000014",41.92,-87.65,41.932418,-87.652705,"member"
"1F0057ED47553A08","electric_bike","2022-03-24 19:35:16","2022-03-24 19:41:09","Stetson Ave & South Water St","TA1308000029","State St & Pearson St","TA1307000061",41.8857888333333,-87.6210451666667,41.897448,-87.628722,"member"
