"ride_id","rideable_type","started_at","ended_at","start_station_name","start_station_id","end_station_name","end_station_id","start_lat","start_lng","end_lat","end_lng","member_casual"
"A6EBA168213D9072","classic_bike","2022-05-30 20:57:57","2022-05-30 22:03:09","Fairbanks Ct & Grand Ave","TA1305000003","Wabash Ave & Wacker Pl","TA1307000131",41.8918473721099,-87.6205801963806,41.886875,-87.62603,"casual"
"AFD82C9806816D78","classic_bike","2022-05-14 13:46:09","2022-05-14 13:51:13","Daley Center Plaza","TA1306000010","Desplaines St & Randolph St","15535",41.884241,-87.629634,41.88461618962,-87.6445705849,"casual"
"741B3A02A615BA69","electric_bike","2022-05-31 11:06:53","2022-05-31 11:22:18","Franklin St & Monroe St","TA1309000007","Halsted St & Wrightwood Ave","TA1309000061",41.880096793,-87.636284947,41.929143,-87.649077,"casual"
"722CE3344D46B16A","docked_bike","2022-05-13 20:42:37","2022-05-13 20:49:58","Greenview Ave & Fullerton Ave","TA1307000001","Ashland Ave & Wellington Ave","13269",41.92533,-87.6658,41.936083,-87.669807,"casual"
"ECF4E8B3A0D049A7","electric_bike","2022-05-07 15:38:13","2022-05-07 16:37:20","Milwaukee Ave & Wabansia Ave","13243","","",41.9126843333333,-87.6814681666667,41.89,-87.61,"casual"
"AD37BC4EEAF57B26","classic_bike","2022-05-26 17:55:03","2022-05-26 18:00:12","Sheridan Rd & Buena Ave","TA1309000027","Sheffield Ave & Waveland Ave","TA1307000126",41.958494,-87.654966,41.949399,-87.654529,"casual"
"79CE71521F9CA113","classic_bike","2022-05-27 11:09:57","2022-05-27 11:10:51","Emerald Ave & 31st St","TA1309000055","Emerald Ave & 31st St","TA1309000055",41.838198,-87.645143,41.838198,-87.645143,"casual"
"D9DE5769AB82F6BA","classic_bike","2022-05-13 15:48:17","2022-05-13 16:06:02","Lakefront Trail & Bryn Mawr Ave","15576","Montrose Harbor","TA1308000012",41.9840441151921,-87.6522812247276,41.963982,-87.638181,"casual"
"FAD095E61F5A7283","electric_bike","2022-05-10 11:47:56","2022-05-10 12:02:07","","","Rockwell St & Eastwood Ave","KA1504000093",41.95,-87.65,41.96590013976,-87.6936384935,"casual"
"5DE0DDA58F9ABEEF","classic_bike","2022-05-13 12:52:21","2022-05-13 13:08:12","Columbus Dr & Randolph St","13263","Burnham Harbor","15545",41.884728,-87.619521,41.857411787074,-87.6137915253639,"member"
"BA74FCDE1FDD944B","classic_bike","2022-05-16 17:03:27","2022-05-16 17:23:38","University Library (NU)","605","Bosworth Ave & Howard St","16806",42.052939,-87.673447,42.019537,-87.669563,"member"
"C59FFEC9BFEBA042","classic_bike","2022-05-09 17:09:41","2022-05-09 17:10:14","McClurg Ct & Erie St","KA1503000041","McClurg Ct & Erie St","KA1503000041",41.894503,-87.617854,41.894503,-87.617854,"member"
"CEE2B6AA81C38544","classic_bike","2022-05-10 19:01:19","2022-05-10 19:15:38","Green St & Randolph St*","chargingstx3","Michigan Ave & Lake St","TA1305000011",41.8836016572752,-87.6486267149448,41.886024,-87.624117,"casual"
"AB178F9A8C7BD1AA","electric_bike","2022-05-13 16:39:47","2022-05-13 16:45:11","Franklin St & Chicago Ave","13017","Rush St & Cedar St","KA1504000133",41.8966805,-87.6358021666667,41.90230870122,-87.627690528,"member"
"36C34458E8FF8C9E","electric_bike","2022-05-28 14:33:52","2022-05-28 14:34:05","","","","",41.87,-87.64,41.87,-87.64,"casual"
"A6816543F2472FD5","classic_bike","2022-05-18 16:01:44","2022-05-18 16:23:17","Shedd Aquarium","15544","Michigan Ave & Jackson Blvd","TA1309000002",41.86722595682,-87.6153553902,41.87785,-87.62408,"casual"
"43F13AB139222652","electric_bike","2022-05-25 10:54:24","2022-05-25 11:01:56","Southport Ave & Wellington Ave","TA1307000006","Sheffield Ave & Webster Ave","TA1309000033",41.9358031666667,-87.6635335,41.92154,-87.653818,"member"
"C9E4E860A6A21242","classic_bike","2022-05-16 20:09:20","2022-05-16 20:16:26","Racine Ave & Fullerton Ave","TA1306000026","Clark St & Wrightwood Ave","TA1305000014",41.92556258,-87.65840426,41.929546,-87.643118,"member"
"C394BB769EAE591D","classic_bike","2022-05-31 07:40:52","2022-05-31 07:58:28","Delano Ct & Roosevelt Rd","KA1706005007","Hermitage Ave & Polk St","13080",41.867491,-87.63219,41.871514,-87.669886,"member"
"EC507C9130E4DE3C","classic_bike","2022-05-12 20:03:29","2022-05-12 20:14:17","Dusable Harbor","KA1503000064","Indiana Ave & Roosevelt Rd","SL-005",41.886976,-87.612813,41.867888,-87.623041,"member"
"F8E7DA308C946F11","electric_bike","2022-05-28 19:43:05","2022-05-28 20:10:05","Green St & Randolph St","13053","Burnham Harbor","15545",41.883242011,-87.648825407,41.857411787074,-87.6137915253639,"casual"
"C943FAF4A5FB4F29","docked_bike","2022-05-08 12:15:05","2022-05-08 13:21:22","Michigan Ave & Lake St","TA1305000011","Shedd Aquarium","15544",41.886024,-87.624117,41.867226,-87.615355,"casual"
"796FDC17565ADD19","electric_bike","2022-05-04 21:55:31","2022-05-04 21:58:37","Hampden Ct & Diversey Ave","202480.0","Broadway & Barry Ave","13137",41.93,-87.64,41.9375823160063,-87.6440978050232,"casual"
"3A1AFF668FF69F35","electric_bike","2022-05-16 11:11:06","2022-05-16 11:51:32","Franklin St & Adams St (Temp)","TA1309000008","Streeter Dr & Grand Ave","13022",41.8788891666667,-87.635809,41.892278,-87.612043,"casual"
"1F946DE594A37497","classic_bike","2022-05-14 22:42:54","2022-05-14 22:47:49","Wilton Ave & Belmont Ave","TA1307000134","Broadway & Barry Ave","13137",41.94018,-87.65304,41.9375823160063,-87.6440978050232,"member"
"10496DF3F9900FA1","classic_bike","2022-05-29 22:41:50","2022-05-29 22:46:58","Indiana Ave & Roosevelt Rd","SL-005","Indiana Ave & Roosevelt Rd","SL-005",41.867888,-87.623041,41.867888,-87.623041,"casual"
"A5962AF48581C471","classic_bike","2022-05-07 02:42:44","2022-05-07 02:47:11","Halsted St & Wrightwood Ave","TA1309000061","Lincoln Ave & Diversey Pkwy","TA1307000064",41.929143,-87.649077,41.932225,-87.658617,"casual"
"F451C5FD1B26FF85","classic_bike","2022-05-19 07:26:43","2022-05-19 07:40:29","Sheffield Ave & Wrightwood Ave","TA1309000023","Larrabee St & Oak St","KA1504000116",41.928712,-87.653833,41.90021949323,-87.6429854676,"member"
"BD55BBA070B569EE","electric_bike","2022-05-06 15:17:55","2022-05-06 15:27:25","","","","",41.79,-87.6,41.79,-87.58,"member"
"F29D7E9F9DD13906","classic_bike","2022-05-31 07:07:52","2022-05-31 07:24:26","Mies van der Rohe Way & Chestnut St","15529","Dearborn St & Monroe St","TA1305000006",41.8985866514,-87.6219152258,41.881319815,-87.6295209193,"casual"
"526239FE5B2D7B15","classic_bike","2022-05-09 18:41:59","2022-05-09 18:52:51","Ogden Ave & Chicago Ave","TA1305000020","Damen Ave & Division St","13136",41.896362458,-87.6540612729,41.903266,-87.678435,"casual"
"491493A95E1CD3C2","electric_bike","2022-05-18 13:10:40","2022-05-18 13:27:00","Milwaukee Ave & Wabansia Ave","13243","Hampden Ct & Diversey Ave","202480.0",41.9125963333333,-87.6813485,41.93,-87.64,"member"
"999AB4F5C2E126BB","classic_bike","2022-05-14 11:58:13","2022-05-14 12:10:14","Broadway & Cornelia Ave","13278","Seeley Ave & Roscoe St","13144",41.945529,-87.646439,41.943403,-87.679618,"casual"
"EAA1563D8521725B","classic_bike","2022-05-19 18:43:41","2022-05-19 18:54:47","Wells St & Evergreen Ave","TA1308000049","Stockton Dr & Wrightwood Ave","13276",41.906724,-87.63483,41.93132,-87.638742,"member"
"CC0843042B3C57E3","electric_bike","2022-05-28 20:43:49","2022-05-28 21:14:17","Kedzie Ave & Chicago Ave","KA1504000114","","",41.8954571666667,-87.7061633333333,41.9,-87.71,"casual"
"8870C413B45FDEAC","electric_bike","2022-05-28 09:47:35","2022-05-28 10:23:45","Southport Ave & Belmont Ave","13229","Clark St & Armitage Ave","13146",41.939448953,-87.663856983,41.918306,-87.636282,"member"
"C026A80233A5D151","classic_bike","2022-05-28 13:28:24","2022-05-28 13:41:41","Franklin St & Illinois St","RN-","Eckhart Park","13289",41.8910233102519,-87.6354798674583,41.89637337,-87.66098386,"member"
"B37F7D1A937A100C","electric_bike","2022-05-20 13:19:37","2022-05-20 13:28:13","Mies van der Rohe Way & Chestnut St","15529","Franklin St & Illinois St","RN-",41.8985825,-87.6216355,41.8910233102519,-87.6354798674583,"casual"
"1984D6B1E43289B5","classic_bike","2022-05-29 22:17:54","2022-05-29 22:26:07","Wilton Ave & Belmont Ave","TA1307000134","Southport Ave & Wrightwood Ave","TA1307000113",41.94018,-87.65304,41.928773,-87.663913,"casual"
"7C7AE3F37C993E6A","electric_bike","2022-05-11 16:36:04","2022-05-11 16:41:18","","","Clinton St & Washington Blvd","WL-012",41.89,-87.65,41.88338,-87.64117,"member"
"976019BE872E18A3","classic_bike","2022-05-27 17:58:59","2022-05-27 18:02:19","Woodlawn Ave & 55th St","TA1307000164","Kimbark Ave & 53rd St","TA1309000037",41.795264,-87.596471,41.799568,-87.594747,"member"
"9C01EB341DE63CE6","electric_bike","2022-05-10 13:51:59","2022-05-10 13:59:29","Wells St & Hubbard St","TA1307000151","","",41.8899678333333,-87.634316,41.88,-87.63,"casual"
"B2DFF3842AA06E6D","electric_bike","2022-05-18 18:08:57","2022-05-18 18:17:30","Clinton St & Jackson Blvd","638","Kingsbury St & Erie St","13265",41.8782825,-87.6413223333333,41.8938080562436,-87.6416972279549,"casual"
"9DEF16B745C6F8CE","classic_bike","2022-05-28 16:43:40","2022-05-28 16:54:12","Broadway & Waveland Ave","13325","Sheridan Rd & Lawrence Ave","TA1309000041",41.949074,-87.648636,41.969517,-87.654691,"member"
"C56F755154E39821","electric_bike","2022-05-01 09:58:07","2022-05-01 10:00:47","Sheffield Ave & Webster Ave","TA1309000033","Larrabee St & Webster Ave","13193",41.9217356666667,-87.6539041666667,41.921822,-87.64414,"member"
"9129DE898A49B118","classic_bike","2022-05-30 14:28:48","2022-05-30 15:37:24","Franklin St & Illinois St","RN-","Morgan St & Lake St","TA1306000015",41.8910233102519,-87.6354798674583,41.8857792524043,-87.6510246098041,"casual"
"0AB66191668EE139","electric_bike","2022-05-01 01:36:45","2022-05-01 02:06:48","Sheridan Rd & Greenleaf Ave","KA1504000159","Lincoln Ave & Winona St","KA1504000078",42.0106181666667,-87.6623971666667,41.97491129677,-87.6925025594,"member"
"FB9A37B47BEF72AF","electric_bike","2022-05-09 10:00:47","2022-05-09 10:10:59","","","Racine Ave & Belmont Ave","TA1308000019",41.94,-87.63,41.939743,-87.658865,"member"
"693EC4FDE674C08F","electric_bike","2022-05-02 17:40:56","2022-05-02 17:49:04","","","University Library (NU)","605",42.04,-87.68,42.052939,-87.673447,"casual"
"BD3EFC5E603077BC","classic_bike","2022-05-30 19:56:43","2022-05-30 20:10:44","Broadway & Sheridan Rd","13323","Lakeview Ave & Fullerton Pkwy","TA1309000019",41.952833,-87.649993,41.925858,-87.638973,"member"
"FCEB001C58FFFC44","electric_bike","2022-05-09 13:48:24","2022-05-09 13:51:05","Paulina St & Flournoy St","KA1504000104","","",41.872935,-87.669069,41.87,-87.67,"casual"
"C53D8C6AC00AAE5F","electric_bike","2022-05-24 13:44:12","2022-05-24 14:01:02","DuSable Lake Shore Dr & Monroe St","13300","Green St & Madison St","TA1307000120",41.8809813333333,-87.6167643333333,41.881892,-87.648789,"casual"
"BDFB1EDE0449DF69","electric_bike","2022-05-26 01:12:29","2022-05-26 01:25:19","","","Marine Dr & Ainslie St","KA1504000171",41.95,-87.67,41.9716,-87.650154,"member"
"60F26EA02BC057BF","electric_bike","2022-05-29 21:16:26","2022-05-29 21:23:49","","","","",41.8,-87.59,41.8,-87.6,"casual"
"A041436F4BE2A268","electric_bike","2022-05-26 18:40:49","2022-05-26 18:43:50","McClurg Ct & Erie St","KA1503000041","Michigan Ave & Pearson St","13034",41.8945471666667,-87.6184648333333,41.89766,-87.62351,"member"
"41D22DA8870DE09A","classic_bike","2022-05-02 18:25:26","2022-05-02 18:41:15","Dearborn St & Erie St","13045","Racine Ave & Washington Blvd","654",41.893992,-87.629318,41.883073,-87.656952,"casual"
"C011958EACEA50C9","classic_bike","2022-05-24 08:45:53","2022-05-24 09:12:21","Columbus Dr & Randolph St","13263","Indiana Ave & Roosevelt Rd","SL-005",41.884728,-87.619521,41.867888,-87.623041,"casual"
"1076C4EEBD452AD3","classic_bike","2022-05-02 13:52:07","2022-05-02 14:52:33","Montrose Harbor","TA1308000012","DuSable Lake Shore Dr & Monroe St","13300",41.963982,-87.638181,41.880958,-87.616743,"casual"
"FA7A2FE8733D6E6F","electric_bike","2022-05-27 12:44:18","2022-05-27 12:45:10","Dearborn St & Adams St","TA1305000005","Dearborn St & Adams St","TA1305000005",41.87832,-87.6300001666667,41.8793563587,-87.6297910363,"member"
"80F7DCCCFA49C907","classic_bike","2022-05-23 15:40:47","2022-05-23 16:03:17","Clark St & Schiller St","TA1309000024","Lincoln Ave & Addison St","TA1309000050",41.907993,-87.631501,41.946176,-87.673308,"casual"
"E358BB56B6315EBF","classic_bike","2022-05-16 07:50:00","2022-05-16 07:59:46","Halsted St & Wrightwood Ave","TA1309000061","DuSable Lake Shore Dr & Wellington Ave","TA1307000041",41.929143,-87.649077,41.9366884494997,-87.6368290185928,"member"
"EEBC50942E499472","electric_bike","2022-05-24 16:18:35","2022-05-24 16:23:55","Dearborn St & Monroe St","TA1305000006","Wabash Ave & Roosevelt Rd","TA1305000002",41.8812078333333,-87.6305668333333,41.867227,-87.625961,"member"
"649D04D1FFC4BB3F","classic_bike","2022-05-25 13:50:58","2022-05-25 14:22:28","Cannon Dr & Fullerton Ave","13124","Lakefront Trail & Bryn Mawr Ave","15576",41.9267559875,-87.6344287848,41.9840441151921,-87.6522812247276,"member"
"0CD97826CB2A2CA0","classic_bike","2022-05-11 08:15:55","2022-05-11 08:33:42","Cornell Ave & Hyde Park Blvd","KA1503000007","Ellis Ave & 60th St","KA1503000014",41.802406,-87.586924,41.78509714636,-87.6010727606,"member"
"F9DBE0DF441A4D81","electric_bike","2022-05-07 15:11:42","2022-05-07 15:19:07","","","","",41.8,-87.59,41.79,-87.6,"casual"
"22CEC16B42A7D81E","classic_bike","2022-05-12 22:42:15","2022-05-12 23:06:01","Wabash Ave & Grand Ave","TA1307000117","State St & Van Buren St","TA1305000035",41.891466,-87.626761,41.877181,-87.627844,"casual"
"8C17413888C338A0","classic_bike","2022-05-14 14:57:14","2022-05-14 15:31:16","LaSalle Dr & Huron St","KP1705001026","Wabash Ave & Grand Ave","TA1307000117",41.894877,-87.632326,41.891466,-87.626761,"casual"
"389A748D05484BF3","classic_bike","2022-05-21 11:03:06","2022-05-21 11:13:41","Wood St & Hubbard St","13432","Carpenter St & Huron St","13196",41.889899,-87.671473,41.894556,-87.653449,"casual"
"24191A6302BC5A10","classic_bike","2022-05-27 19:50:19","2022-05-27 20:05:32","Lake Park Ave & 56th St","TA1309000063","Cornell Ave & Hyde Park Blvd","KA1503000007",41.793242,-87.587782,41.802406,-87.586924,"member"
"B4887B190E929B61","electric_bike","2022-05-30 10:42:07","2022-05-30 10:50:15","","","Dayton St & North Ave","13058",41.93,-87.64,41.9105780349,-87.6494219288,"member"
"7D5281BB08CAFF25","classic_bike","2022-05-13 20:55:07","2022-05-13 21:14:54","DuSable Lake Shore Dr & Monroe St","13300","McClurg Ct & Ohio St","TA1306000029",41.880958,-87.616743,41.8925921197097,-87.6172891259193,"member"
"E6841BA057651B69","classic_bike","2022-05-09 17:45:46","2022-05-09 18:05:59","St. Clair St & Erie St","13016","Lakeview Ave & Fullerton Pkwy","TA1309000019",41.8943451374243,-87.6227983832359,41.925858,-87.638973,"member"
"0BBB7ED307056C57","docked_bike","2022-05-15 14:51:44","2022-05-15 15:41:12","Clark St & North Ave","13128","Adler Planetarium","13431",41.911974,-87.631942,41.866095,-87.607267,"casual"
"4727C519F167CE95","electric_bike","2022-05-24 17:51:21","2022-05-24 18:36:41","","","","",41.93,-87.65,41.94,-87.64,"member"
"2A674A92628A4DDF","electric_bike","2022-05-22 17:10:40","2022-05-22 17:15:12","Kedzie Ave & Palmer Ct","13292","","",41.9215011666667,-87.707394,41.93,-87.7,"member"
"DC9A9B4DAC3D3057","electric_bike","2022-05-01 08:20:22","2022-05-01 08:42:39","Calumet Ave & 21st St","15546","Wabash Ave & Wacker Pl","TA1307000131",41.8541616666667,-87.6191905,41.886875,-87.62603,"casual"
"7818C54EFE8DEC3A","electric_bike","2022-05-02 00:09:58","2022-05-02 00:24:21","","","","",41.96,-87.75,41.95,-87.73,"casual"
"395842254E030CE0","classic_bike","2022-05-17 17:30:12","2022-05-17 17:39:44","Clark St & Lake St","KA1503000012","Clark St & Elm St","TA1307000039",41.88602082773,-87.6308760584,41.902973,-87.63128,"member"
"0177D2761B448067","classic_bike","2022-05-21 13:25:08","2022-05-21 13:34:26","Clybourn Ave & Division St","TA1307000115","Southport Ave & Clybourn Ave","TA1309000030",41.904613,-87.640552,41.920771,-87.663712,"member"
"6F132D4C8118D23F","electric_bike","2022-05-05 06:51:20","2022-05-05 06:54:15","Orleans St & Merchandise Mart Plaza","TA1305000022","Canal St & Madison St","13341",41.887715,-87.6370481666667,41.882091,-87.639833,"member"
"5AC3677BBBF5BA0A","electric_bike","2022-05-09 21:00:44","2022-05-09 21:28:48","Clark St & Schiller St","TA1309000024","","",41.9078955,-87.6316101666667,41.89,-87.61,"casual"
"94DB703C43BCB602","electric_bike","2022-05-08 19:48:16","2022-05-08 20:23:30","","","Racine Ave & 18th St","13164",41.93,-87.71,41.858166,-87.656495,"member"
"B28D1F689347818D","electric_bike","2022-05-01 17:14:18","2022-05-01 17:20:40","","","Racine Ave & Wrightwood Ave","TA1309000059",41.95,-87.66,41.928887,-87.658971,"casual"
"BB7B24B01E9F5BF2","classic_bike","2022-05-17 05:46:37","2022-05-17 06:02:10","Franklin St & Illinois St","RN-","Sedgwick St & Webster Ave","13191",41.8910233102519,-87.6354798674583,41.922167,-87.638888,"member"
"EDBAEE681DFDE14F","electric_bike","2022-05-28 15:35:02","2022-05-28 15:44:46","Orleans St & Merchandise Mart Plaza","TA1305000022","Mies van der Rohe Way & Chicago Ave","13338",41.8880421666667,-87.6371458333333,41.8969446263708,-87.6217576861382,"casual"
"EF333EC4CE9BDD37","classic_bike","2022-05-09 15:12:33","2022-05-09 16:13:21","Woodlawn Ave & Lake Park Ave","KA1503000065","Streeter Dr & Grand Ave","13022",41.81409271048,-87.5970051479,41.892278,-87.612043,"casual"
"D0CA8C02BC037877","electric_bike","2022-05-28 18:00:46","2022-05-28 18:12:17","Paulina St & Flournoy St","KA1504000104","Ogden Ave & Race Ave","13194",41.873066,-87.6692475,41.891795,-87.658751,"member"
"9FA3BE2F9890979E","electric_bike","2022-05-04 13:37:01","2022-05-04 13:43:42","","","Leavitt St & Archer Ave","KA1503000068",41.82,-87.69,41.82879201994,-87.6806044594,"casual"
"3837D24BCC596F20","docked_bike","2022-05-26 15:50:51","2022-05-26 16:08:15","Michigan Ave & Pearson St","13034","Michigan Ave & Lake St","TA1305000011",41.89766,-87.62351,41.886024,-87.624117,"casual"
"F73692B7A2EA1919","classic_bike","2022-05-10 16:16:02","2022-05-10 16:26:08","Franklin St & Monroe St","TA1309000007","Wabash Ave & Wacker Pl","TA1307000131",41.880317,-87.635185,41.886875,-87.62603,"casual"
"3D6EDF521178C2B6","electric_bike","2022-05-27 17:13:14","2022-05-27 18:16:26","","","Dorchester Ave & 49th St","KA1503000069",41.8,-87.6,41.805772,-87.592464,"casual"
"3AAA895E8CBE412C","classic_bike","2022-05-15 12:22:07","2022-05-15 12:32:47","Clark St & Elm St","TA1307000039","Kingsbury St & Kinzie St","KA1503000043",41.902973,-87.63128,41.88917683258,-87.6385057718,"casual"
"0A3403808325138F","electric_bike","2022-05-12 07:06:14","2022-05-12 07:31:06","","","Wells St & Huron St","TA1306000012",41.94,-87.64,41.894722,-87.634362,"casual"
"7F737539A1192335","classic_bike","2022-05-10 08:03:08","2022-05-10 08:12:21","Wells St & Huron St","TA1306000012","Daley Center Plaza","TA1306000010",41.894722,-87.634362,41.884241,-87.629634,"member"
"AC399E53651B8765","classic_bike","2022-05-09 19:21:43","2022-05-09 19:32:33","Broadway & Cornelia Ave","13278","Lincoln Ave & Diversey Pkwy","TA1307000064",41.945529,-87.646439,41.932225,-87.658617,"member"
"8388C3006974E400","electric_bike","2022-05-09 17:06:30","2022-05-09 17:17:51","Larrabee St & Webster Ave","13193","Damen Ave & Cortland St","13133",41.9218163333333,-87.6440935,41.915983,-87.677335,"casual"
"76C995BCDC27A2D0","electric_bike","2022-05-13 19:34:23","2022-05-13 19:42:43","Humboldt Blvd & Armitage Ave","15651","Milwaukee Ave & Diversey Ave","504",41.917493,-87.701792,41.93,-87.71,"casual"
"667FC7539CF3FBB1","classic_bike","2022-05-16 18:50:25","2022-05-16 18:52:37","Sheridan Rd & Montrose Ave","TA1307000107","Clarendon Ave & Junior Ter","13389",41.96167,-87.65464,41.961004,-87.649603,"member"
"F7193BAE74EF7A15","electric_bike","2022-05-11 19:41:39","2022-05-11 19:44:28","","","","",41.87,-87.64,41.86,-87.64,"member"
"362A7F3F62E7AB99","electric_bike","2022-05-07 20:37:40","2022-05-07 20:42:06","","","","",41.92,-87.68,41.92,-87.7,"casual"
"7D045D823D427E94","electric_bike","2022-05-20 20:42:41","2022-05-20 20:52:27","","","","",41.95,-87.65,41.95,-87.65,"member"
"4ACCBEB0E0CD20EB","electric_bike","2022-05-03 17:36:18","2022-05-03 17:40:31","Paulina Ave & North Ave","TA1305000037","Ashland Ave & Augusta Blvd","13248",41.9103768333333,-87.6701916666667,41.899643,-87.6677,"member"
"91762E435736BFA9","electric_bike","2022-05-29 18:28:00","2022-05-29 18:32:29","","","","",41.87,-87.62,41.87,-87.62,"member"
"1E0AF21C03D73F38","electric_bike","2022-05-23 17:29:00","2022-05-23 17:35:15","Michigan Ave & Washington St","13001","Dearborn St & Van Buren St","624",41.884017706,-87.624540567,41.876268,-87.629155,"member"
"45E101DC1376E00B","electric_bike","2022-05-11 17:14:19","2022-05-11 17:27:42","","","Lincoln Ave & Fullerton Ave","TA1309000058",41.89,-87.63,41.9241610290676,-87.6463803648949,"member"
"AD723471E9FD1746","classic_bike","2022-05-21 00:22:42","2022-05-21 00:29:39","Halsted St & Willow St","TA1307000166","Clark St & Armitage Ave","13146",41.913865,-87.648755,41.918306,-87.636282,"member"
"42D54B002A7C2EBC","classic_bike","2022-05-18 16:52:36","2022-05-18 17:04:49","St. Clair St & Erie St","13016","Dearborn St & Van Buren St","624",41.8943451374243,-87.6227983832359,41.876268,-87.629155,"member"
"B7C3A6AF3D040915","electric_bike","2022-05-15 22:54:51","2022-05-15 22:59:00","Halsted St & Roosevelt Rd","TA1305000017","Morgan St & 18th St","13163",41.8673843333333,-87.6486436666667,41.858086,-87.651073,"member"
"CA13301DCF1C887F","classic_bike","2022-05-01 15:20:53","2022-05-01 15:33:03","Clinton St & Madison St","TA1305000032","Damen Ave & Madison St","13134",41.882242,-87.641066,41.88137,-87.67493,"casual"
"409B9370946C5684","electric_bike","2022-05-30 13:09:54","2022-05-30 13:41:23","","","Theater on the Lake","TA1308000001",41.97,-87.64,41.926277,-87.630834,"member"
"A2FF00770593775E","classic_bike","2022-05-29 16:53:28","2022-05-29 17:05:48","Broadway & Barry Ave","13137","Clarendon Ave & Gordon Ter","13379",41.9375823160063,-87.6440978050232,41.9578665241517,-87.6495051383972,"member"
"5E5FB5154A23253F","electric_bike","2022-05-02 12:32:55","2022-05-02 13:02:48","Tripp Ave & 65th St","407","Hamlin Ave & 62nd Pl","350",41.77,-87.73,41.78,-87.72,"casual"
"6C687F13F13FD5C8","classic_bike","2022-05-15 16:03:26","2022-05-15 17:10:17","Millennium Park","13008","Sheridan Rd & Irving Park Rd","13063",41.8810317,-87.62408432,41.954245,-87.654406,"casual"
"51CBE9F0C291045D","electric_bike","2022-05-09 14:01:10","2022-05-09 14:07:02","","","Wabash Ave & Grand Ave","TA1307000117",41.9,-87.62,41.891466,-87.626761,"casual"
"9873D07695AB8A85","classic_bike","2022-05-09 18:07:02","2022-05-09 18:47:37","Lakefront Trail & Bryn Mawr Ave","15576","DuSable Lake Shore Dr & Diversey Pkwy","TA1309000039",41.9840441151921,-87.6522812247276,41.932588,-87.636427,"member"
"BBC3E90CF735CE96","electric_bike","2022-05-05 06:17:11","2022-05-05 06:19:41","Kingsbury St & Kinzie St","KA1503000043","Clinton St & Lake St","13021",41.889195,-87.6384281666667,41.885637,-87.641823,"member"
"A8367A83C05DEBEC","classic_bike","2022-05-15 09:00:12","2022-05-15 09:45:03","Streeter Dr & Grand Ave","13022","Streeter Dr & Grand Ave","13022",41.892278,-87.612043,41.892278,-87.612043,"casual"
"0F401E27271B2FBC","electric_bike","2022-05-12 19:12:25","2022-05-12 19:21:09","Dearborn St & Erie St","13045","Streeter Dr & Grand Ave","13022",41.8941851666667,-87.6292975,41.892278,-87.612043,"member"
"4E5A4D4356312E96","classic_bike","2022-05-10 12:11:11","2022-05-10 12:11:28","Michigan Ave & Jackson Blvd","TA1309000002","Michigan Ave & Jackson Blvd","TA1309000002",41.87785,-87.62408,41.87785,-87.62408,"casual"
"129169E5A099A068","classic_bike","2022-05-10 07:40:50","2022-05-10 07:54:31","Ashland Ave & Division St","13061","Wells St & Hubbard St","TA1307000151",41.90345,-87.667747,41.889906,-87.634266,"casual"
"E08E838959189D91","electric_bike","2022-05-04 14:51:20","2022-05-04 14:51:44","Ritchie Ct & Banks St","KA1504000134","Ritchie Ct & Banks St","KA1504000134",41.9070963333333,-87.6261996666667,41.906866,-87.626217,"member"
"00939FF00ED16FC4","electric_bike","2022-05-07 06:33:19","2022-05-07 06:48:00","","","Kilpatrick Ave & Parker Ave","358",41.91,-87.76,41.93,-87.74,"casual"
"D806C4815CFA1C74","classic_bike","2022-05-04 17:21:12","2022-05-04 17:28:50","Ashland Ave & 13th St","13354","Halsted St & Roosevelt Rd","TA1305000017",41.865234,-87.666507,41.867324,-87.648625,"member"
"AC021E41E9684880","classic_bike","2022-05-14 17:25:48","2022-05-14 17:46:26","DuSable Lake Shore Dr & North Blvd","LF-005","Streeter Dr & Grand Ave","13022",41.911722,-87.626804,41.892278,-87.612043,"casual"
"293C0F94A5B01357","classic_bike","2022-05-17 16:21:11","2022-05-17 16:27:33","Damen Ave & Chicago Ave","13132","Ashland Ave & Division St","13061",41.895769,-87.67722,41.90345,-87.667747,"member"
"7B15FB6177E9814C","electric_bike","2022-05-25 11:35:01","2022-05-25 11:38:36","","","Ellis Ave & 55th St","KA1504000076",41.79,-87.6,41.79430062054,-87.6014497734,"member"
"E3E921EC982377FD","electric_bike","2022-05-15 13:33:37","2022-05-15 13:34:54","Ellis Ave & 58th St","TA1309000011","Ellis Ave & 60th St","KA1503000014",41.7886168333333,-87.601205,41.78509714636,-87.6010727606,"member"
"0FD2EA17D859FE73","electric_bike","2022-05-14 15:01:08","2022-05-14 15:07:52","McClurg Ct & Erie St","KA1503000041","Clark St & Chicago Ave","13303",41.8950413333333,-87.6188503333333,41.89675,-87.63089,"member"
"63D523F836EAA835","electric_bike","2022-05-28 11:08:49","2022-05-28 11:10:54","Lincoln Ave & Addison St","TA1309000050","","",41.9461483333333,-87.673282,41.95,-87.67,"member"
"D92D64F618ED5F02","classic_bike","2022-05-13 13:18:21","2022-05-13 13:29:18","Wabash Ave & Roosevelt Rd","TA1305000002","Adler Planetarium","13431",41.867227,-87.625961,41.866095,-87.607267,"member"
"F26827A303FD6672","classic_bike","2022-05-07 15:24:06","2022-05-07 15:33:06","Greenview Ave & Jarvis Ave","520","Sheridan Rd & Loyola Ave","RP-009",42.015962,-87.66857,42.00104377979,-87.6611982433,"member"
"281E325B12082FBD","electric_bike","2022-05-03 19:28:35","2022-05-03 19:36:17","Wabash Ave & Grand Ave","TA1307000117","Clinton St & Washington Blvd","WL-012",41.8914776666667,-87.6268675,41.88338,-87.64117,"member"
"6841B1CDA34D5C68","classic_bike","2022-05-26 09:52:45","2022-05-26 10:04:18","DuSable Lake Shore Dr & Belmont Ave","TA1309000049","Southport Ave & Wellington Ave","TA1307000006",41.940775,-87.639192,41.935733,-87.663576,"casual"
"1A1184BFBA4C2623","classic_bike","2022-05-14 16:39:06","2022-05-14 16:54:28","Michigan Ave & Lake St","TA1305000011","Michigan Ave & 14th St","TA1307000124",41.886024,-87.624117,41.864059,-87.623727,"member"
"D3E7365960FC7B52","classic_bike","2022-05-29 23:50:22","2022-05-30 00:25:31","Michigan Ave & 18th St","13150","Ogden Ave & Congress Pkwy","13081",41.857813,-87.62455,41.87501,-87.67328,"casual"
"59EC7737C5C5F3DD","classic_bike","2022-05-26 16:35:07","2022-05-26 16:39:15","Canal St & Madison St","13341","Kingsbury St & Kinzie St","KA1503000043",41.882091,-87.639833,41.88917683258,-87.6385057718,"member"
"69D462AB7CAB30A9","electric_bike","2022-05-27 00:10:18","2022-05-27 00:14:35","Sheffield Ave & Wrightwood Ave","TA1309000023","Wilton Ave & Belmont Ave","TA1307000134",41.9287101666667,-87.6538038333333,41.94018,-87.65304,"casual"
"E91ABC4249B2102D","classic_bike","2022-05-26 12:56:43","2022-05-26 13:08:47","Indiana Ave & Roosevelt Rd","SL-005","Wabash Ave & Cermak Rd","TA1305000001",41.867888,-87.623041,41.852619,-87.626488,"casual"
"D93C4082B89003DD","electric_bike","2022-05-24 18:25:48","2022-05-24 18:36:08","Lincoln Ave & Fullerton Ave","TA1309000058","","",41.924086094,-87.646275163,41.91,-87.62,"casual"
"146337659F276D46","electric_bike","2022-05-22 15:23:21","2022-05-22 15:44:01","","","Wells St & Concord Ln","TA1308000050",41.88,-87.65,41.912133,-87.634656,"member"
"E8023D0D13B5C758","classic_bike","2022-05-11 19:18:08","2022-05-11 19:32:34","Clark St & Lincoln Ave","13179","Halsted St & Roscoe St","TA1309000025",41.915689,-87.6346,41.94367,-87.64895,"casual"
"F61F0CF1CFCE18BD","electric_bike","2022-05-09 07:15:24","2022-05-09 07:19:51","May St & Taylor St","13160","Wolcott Ave & Polk St","TA1309000064",41.8694018333333,-87.6555156666667,41.871262,-87.673688,"member"
"829B3A6736500DC4","electric_bike","2022-05-19 20:08:04","2022-05-19 20:15:04","Midway Orange Line","777","St Louis Ave & 59th St","387",41.79,-87.74,41.79,-87.71,"casual"
"63DCCD9E792D4600","electric_bike","2022-05-07 15:22:23","2022-05-07 15:37:44","","","Wells St & Elm St","KA1504000135",41.89,-87.65,41.903222,-87.634324,"casual"
"ED908AA4786BB4C3","docked_bike","2022-05-23 17:18:22","2022-05-23 17:56:54","Stetson Ave & South Water St","TA1308000029","DuSable Lake Shore Dr & North Blvd","LF-005",41.886835,-87.62232,41.911722,-87.626804,"casual"
"CEF86962AE462058","electric_bike","2022-05-14 11:46:50","2022-05-14 13:07:04","","","","",41.83,-87.68,41.79,-87.63,"casual"
"8B603946B958FB92","classic_bike","2022-05-23 09:28:34","2022-05-23 09:50:29","Broadway & Cornelia Ave","13278","Wells St & Elm St","KA1504000135",41.945529,-87.646439,41.903222,-87.634324,"casual"
"890DDEFA80913767","electric_bike","2022-05-20 18:01:27","2022-05-20 18:28:16","Elizabeth (May) St & Fulton St","13197","Pine Grove Ave & Waveland Ave","TA1307000150",41.886605,-87.6584816666667,41.9494727408833,-87.6464527845383,"casual"
"A51A449D071E72B0","electric_bike","2022-05-19 07:45:23","2022-05-19 07:58:33","","","","",41.76,-87.57,41.76,-87.57,"member"
"21392E7A8C8C56D0","classic_bike","2022-05-26 11:05:58","2022-05-26 11:07:55","Ellis Ave & 55th St","KA1504000076","University Ave & 57th St","KA1503000071",41.79430062054,-87.6014497734,41.791478,-87.599861,"member"
"FC7FCAFB32DA5FBB","electric_bike","2022-05-12 17:09:09","2022-05-12 17:46:47","Burling St & Diversey Pkwy","TA1309000036","","",41.933005,-87.6477253333333,41.93,-87.65,"casual"
"E6455926D273D773","classic_bike","2022-05-20 17:48:18","2022-05-20 17:56:22","Clifton Ave & Armitage Ave","TA1307000163","Dayton St & North Ave","13058",41.918216,-87.656936,41.9105780349,-87.6494219288,"member"
"91502DDA91517492","electric_bike","2022-05-04 17:56:46","2022-05-04 18:15:32","Sangamon St & Washington Blvd","13409","McClurg Ct & Ohio St","TA1306000029",41.8829161666667,-87.6511125,41.8925921197097,-87.6172891259193,"member"
"363A10F0195B0ACE","classic_bike","2022-05-02 15:52:23","2022-05-02 16:06:24","Halsted St & Willow St","TA1307000166","Wilton Ave & Belmont Ave","TA1307000134",41.913865,-87.648755,41.94018,-87.65304,"casual"
"3DA8721770138C28","classic_bike","2022-05-28 11:41:27","2022-05-28 11:53:36","Franklin St & Adams St (Temp)","TA1309000008","Franklin St & Adams St (Temp)","TA1309000008",41.8794340914001,-87.6355040073395,41.8794340914001,-87.6355040073395,"casual"
"A96D99B702310C10","classic_bike","2022-05-29 14:52:45","2022-05-29 15:18:45","Southport Ave & Roscoe St","13071","Wells St & Huron St","TA1306000012",41.943739,-87.66402,41.894722,-87.634362,"casual"
"EE2550BFA2B4944C","classic_bike","2022-05-30 18:54:53","2022-05-30 19:31:56","Indiana Ave & Roosevelt Rd","SL-005","Indiana Ave & Roosevelt Rd","SL-005",41.867888,-87.623041,41.867888,-87.623041,"casual"
"546E9ABAF4975E67","electric_bike","2022-05-19 13:41:00","2022-05-19 14:06:08","Michigan Ave & 8th St","623","","",41.87267,-87.624318,41.88,-87.62,"casual"
"6BDAD8AA8D7D9132","electric_bike","2022-05-21 18:58:54","2022-05-21 19:23:32","Sheffield Ave & Fullerton Ave","TA1306000016","Kilbourn & Belden","359",41.9256903333333,-87.6536985,41.92,-87.74,"casual"
"C7C82A7766FB7060","electric_bike","2022-05-29 15:41:47","2022-05-29 16:11:01","DuSable Lake Shore Dr & Diversey Pkwy","TA1309000039","Streeter Dr & Grand Ave","13022",41.9326318333333,-87.6363851666667,41.892278,-87.612043,"casual"
"F5D1229F7B5DAE25","classic_bike","2022-05-14 19:54:28","2022-05-14 20:54:13","Milwaukee Ave & Wabansia Ave","13243","Milwaukee Ave & Wabansia Ave","13243",41.912616,-87.681391,41.912616,-87.681391,"casual"
"88E6D50A2A929873","electric_bike","2022-05-17 16:52:42","2022-05-17 16:58:12","Clark St & Schreiber Ave","KA1504000156","Clark St & Jarvis Ave","517",41.9992528333333,-87.6713711666667,42.015963,-87.675005,"member"
"5DDCF09D86176203","electric_bike","2022-05-01 12:22:36","2022-05-01 12:34:51","","","","",41.79,-87.6,41.8,-87.6,"member"
"50E8B1BFC42B76D2","docked_bike","2022-05-28 15:34:29","2022-05-28 16:56:56","Lincoln Park Conservatory","LP-","Sheffield Ave & Webster Ave","TA1309000033",41.923931,-87.635825,41.92154,-87.653818,"casual"
"0B238EE08417942A","electric_bike","2022-05-22 12:06:56","2022-05-22 12:18:49","","","","",41.93,-87.68,41.92,-87.66,"member"
"0689FF40D6438CAE","electric_bike","2022-05-30 17:55:17","2022-05-30 18:04:14","Wilton Ave & Diversey Pkwy","TA1306000014","Clark St & Grace St","TA1307000127",41.932458043,-87.652710915,41.95078,-87.659172,"casual"
"4CB39A7792A95113","electric_bike","2022-05-19 17:50:41","2022-05-19 17:59:11","Broadway & Wilson - Truman College Vaccination Site","13074","","",41.9651651666667,-87.6584023333333,41.98,-87.67,"casual"
"CADDCCD50429DC47","electric_bike","2022-05-28 12:43:10","2022-05-28 13:07:24","Damen Ave & Foster Ave","KA1504000149","","",41.975596,-87.6794166666667,41.92,-87.71,"casual"
"ADDBF7F97B7E85B8","classic_bike","2022-05-13 18:58:06","2022-05-13 19:01:13","Pine Grove Ave & Waveland Ave","TA1307000150","Sheffield Ave & Waveland Ave","TA1307000126",41.9494727408833,-87.6464527845383,41.949399,-87.654529,"casual"
"CAE03BF09A881AE8","classic_bike","2022-05-20 18:23:58","2022-05-20 18:55:33","Theater on the Lake","TA1308000001","Paulina Ave & North Ave","TA1305000037",41.926277,-87.630834,41.9098546521673,-87.6699301600456,"casual"
"114BFC5F3284F540","electric_bike","2022-05-20 21:27:45","2022-05-20 21:38:00","","","Justine St & 87th St","642",41.72,-87.68,41.74,-87.66,"casual"
"69D26CBB19D4C444","docked_bike","2022-05-18 17:33:49","2022-05-18 17:47:16","Honore St & Division St","TA1305000034","Noble St & Milwaukee Ave","13290",41.903119,-87.673935,41.90068,-87.6626,"casual"
"F1B413AF5A03F78E","electric_bike","2022-05-26 17:24:48","2022-05-26 17:32:21","","","","",41.89,-87.63,41.9,-87.64,"casual"
"22DFEF7F9FFEB9BF","classic_bike","2022-05-31 19:09:06","2022-05-31 19:15:59","Dearborn Pkwy & Delaware Pl","TA1307000128","Clark St & North Ave","13128",41.898969,-87.629912,41.911974,-87.631942,"casual"
"429881E97476C900","classic_bike","2022-05-28 17:38:14","2022-05-28 17:39:33","Sedgwick St & Schiller St","TA1307000143","Wells St & Evergreen Ave","TA1308000049",41.907626,-87.638566,41.906724,-87.63483,"member"
"3C2AB12D5F99CAC6","electric_bike","2022-05-17 10:35:28","2022-05-17 10:43:40","Shedd Aquarium","15544","Streeter Dr & Grand Ave","13022",41.8672273333333,-87.6152221666667,41.892278,-87.612043,"casual"
"9FDC0D9A692CE488","electric_bike","2022-05-03 19:01:04","2022-05-03 19:11:24","","","Kedzie Ave & Milwaukee Ave","13085",41.91,-87.69,41.929567,-87.707857,"member"
"EC394C59CBD1FB40","classic_bike","2022-05-08 11:38:05","2022-05-08 11:42:47","Wood St & Milwaukee Ave","13221","Noble St & Milwaukee Ave","13290",41.907655,-87.672552,41.90068,-87.6626,"member"
"50FF4657B540BFC3","electric_bike","2022-05-26 16:59:56","2022-05-26 17:11:53","DuSable Lake Shore Dr & Diversey Pkwy","TA1309000039","Clark St & North Ave","13128",41.9326153333333,-87.6365238333333,41.911974,-87.631942,"casual"
"4668C3A45FD2483D","electric_bike","2022-05-29 16:25:49","2022-05-29 16:34:11","","","","",41.79,-87.58,41.79,-87.6,"member"
"34F645C85FCA7888","electric_bike","2022-05-10 07:56:44","2022-05-10 08:38:31","Campbell Ave & North Ave","13257","","",41.9105728333333,-87.689556,41.96,-87.67,"member"
"3BDBBD240A5260F5","classic_bike","2022-05-13 19:10:45","2022-05-13 19:22:20","State St & Randolph St","TA1305000029","Clark St & 9th St (AMLI)","SL-009",41.8846210725794,-87.6278342306614,41.870816,-87.631246,"member"
"DF15726FB390338A","classic_bike","2022-05-28 13:48:02","2022-05-28 13:59:15","Bissell St & Armitage Ave","13059","Clybourn Ave & Division St","TA1307000115",41.9180181423719,-87.6521819829941,41.904613,-87.640552,"casual"
"07B16A9898F188CA","electric_bike","2022-05-18 17:58:13","2022-05-18 18:01:28","","","Dearborn St & Van Buren St","624",41.88,-87.64,41.876268,-87.629155,"member"
"172EAFC4BD85975B","electric_bike","2022-05-06 19:09:06","2022-05-06 19:16:18","Winchester (Ravenswood) Ave & Balmoral Ave","KA1504000147","","",41.9797463333333,-87.6775061666667,41.97,-87.68,"casual"
"556A2D29B0E5F64D","electric_bike","2022-05-04 17:32:19","2022-05-04 17:41:55","Leavitt St & North Ave","TA1308000005","","",41.9101098333333,-87.6823885,41.91,-87.71,"casual"
"5D15405FA0A096CE","classic_bike","2022-05-12 09:20:07","2022-05-12 09:30:42","Milwaukee Ave & Wabansia Ave","13243","Wood St & Augusta Blvd","657",41.912616,-87.681391,41.899181,-87.6722,"member"
"0828F17CA3A313FF","docked_bike","2022-05-17 18:00:13","2022-05-17 18:32:48","Columbus Dr & Randolph St","13263","DuSable Lake Shore Dr & North Blvd","LF-005",41.884728,-87.619521,41.911722,-87.626804,"casual"
"AF86D65A8E1C3C81","electric_bike","2022-05-10 22:24:03","2022-05-10 22:31:03","Broadway & Belmont Ave","13277","Sheffield Ave & Wrightwood Ave","TA1309000023",41.9401496666667,-87.6454576666667,41.928712,-87.653833,"casual"
"09A2D34540765946","classic_bike","2022-05-14 18:45:26","2022-05-14 18:54:39","Clark St & Newport St","632","Halsted St & Wrightwood Ave","TA1309000061",41.94454,-87.654678,41.929143,-87.649077,"member"
"99474A6EC8E30F86","classic_bike","2022-05-02 03:02:58","2022-05-02 03:45:55","Winchester (Ravenswood) Ave & Balmoral Ave","KA1504000147","Winchester (Ravenswood) Ave & Balmoral Ave","KA1504000147",41.979762,-87.67753,41.979762,-87.67753,"casual"
"6FB1DDCBDC3E0140","classic_bike","2022-05-26 08:50:10","2022-05-26 09:03:43","Clybourn Ave & Division St","TA1307000115","Clinton St & Washington Blvd","WL-012",41.904613,-87.640552,41.88338,-87.64117,"member"
"926640E177657C9F","docked_bike","2022-05-21 12:21:10","2022-05-21 12:28:28","Ogden Ave & Chicago Ave","TA1305000020","Green St & Randolph St*","chargingstx3",41.896362,-87.654061,41.883602,-87.648627,"casual"
"D59BF1559A0E561C","electric_bike","2022-05-06 19:22:10","2022-05-06 19:32:21","Jefferson St & Monroe St","WL-011","State St & Randolph St","TA1305000029",41.8803728333333,-87.6426645,41.8846210725794,-87.6278342306614,"casual"
"484CB23230BC585B","classic_bike","2022-05-20 11:25:39","2022-05-20 11:41:36","Mies van der Rohe Way & Chicago Ave","13338","Michigan Ave & Washington St","13001",41.8969446263708,-87.6217576861382,41.8839840647265,-87.6246839761734,"casual"
"548BB74337598789","electric_bike","2022-05-01 20:28:46","2022-05-01 20:40:06","LaSalle St & Illinois St","13430","DuSable Lake Shore Dr & North Blvd","LF-005",41.8908811666667,-87.6315443333333,41.911722,-87.626804,"member"
"1359CEC67C85702F","classic_bike","2022-05-19 23:31:25","2022-05-19 23:52:43","Green St & Madison St","TA1307000120","Dearborn St & Erie St","13045",41.881892,-87.648789,41.893992,-87.629318,"member"
"ECDE44F43D7F5776","electric_bike","2022-05-16 21:15:17","2022-05-16 21:28:55","Halsted St & Roscoe St","TA1309000025","Talman Ave & Addison St","15632",41.9436576666667,-87.6489005,41.9466358306,-87.694614758,"member"
"45FE696E0010228E","electric_bike","2022-05-30 21:05:11","2022-05-30 21:22:55","Sheffield Ave & Wellington Ave","TA1307000052","","",41.9362768333333,-87.6526521666667,41.93,-87.69,"casual"
"C2DD2EE9B4B7CA68","electric_bike","2022-05-26 22:17:37","2022-05-26 22:35:53","Marine Dr & Ainslie St","KA1504000171","","",41.9716171666667,-87.6501726666667,41.96,-87.65,"casual"
"5C06B88A3AD6A863","electric_bike","2022-05-24 09:05:23","2022-05-24 09:14:50","Ogden Ave & Race Ave","13194","Clinton St & Washington Blvd","WL-012",41.8918233333333,-87.6588308333333,41.88338,-87.64117,"member"
"B5B05137460A68CD","electric_bike","2022-05-12 17:07:48","2022-05-12 17:24:28","Wells St & Hubbard St","TA1307000151","Milwaukee Ave & Wabansia Ave","13243",41.8902356666667,-87.6341723333333,41.912616,-87.681391,"member"
"2E33172F5D74C742","electric_bike","2022-05-27 22:24:14","2022-05-27 22:37:14","Daley Center Plaza","TA1306000010","Sangamon St & Washington Blvd","13409",41.8841531666667,-87.6299863333333,41.883165,-87.6511,"member"
"CC93863D416AEB9D","classic_bike","2022-05-01 11:36:20","2022-05-01 11:42:53","Racine Ave & Congress Pkwy","TA1306000025","Green St & Madison St","TA1307000120",41.87464,-87.65703,41.881892,-87.648789,"member"
"7C63AE56028F49CF","electric_bike","2022-05-18 15:45:13","2022-05-18 15:48:21","Rush St & Superior St","15530","LaSalle Dr & Huron St","KP1705001026",41.8962768333333,-87.62304,41.894877,-87.632326,"member"
"8D4CA450EF2AE39B","electric_bike","2022-05-13 16:07:33","2022-05-13 16:11:38","Lakeview Ave & Fullerton Pkwy","TA1309000019","","",41.925798,-87.6389255,41.93,-87.65,"member"
"7C96F6981AEA72FE","electric_bike","2022-05-12 12:30:59","2022-05-12 12:37:43","","","Long & Irving Park","398",41.95,-87.74,41.95,-87.76,"casual"
"B945113297BFB5DE","electric_bike","2022-05-05 09:20:47","2022-05-05 09:24:47","Clinton St & Madison St","TA1305000032","","",41.881894,-87.6409951666667,41.88,-87.64,"member"
"AC975E189101E9D9","classic_bike","2022-05-10 11:51:19","2022-05-10 12:19:22","DuSable Lake Shore Dr & Monroe St","13300","State St & 33rd St","13216",41.880958,-87.616743,41.834734,-87.625813,"member"
"19DF992F4C427CFD","classic_bike","2022-05-14 11:19:54","2022-05-14 11:26:11","Ravenswood Ave & Lawrence Ave","TA1309000066","Lincoln Ave & Sunnyside Ave","TA1307000156",41.96909,-87.674237,41.963004,-87.684781,"casual"
"7C5B1F96F6267444","electric_bike","2022-05-31 15:51:12","2022-05-31 16:07:39","Ashland Ave & Division St","13061","","",41.903283,-87.6681901666667,41.87,-87.69,"casual"
"7039FF59D411D9A0","electric_bike","2022-05-19 18:51:26","2022-05-19 19:27:04","","","","",41.93,-87.69,41.89,-87.72,"casual"
"85EE6C005B6B66F1","electric_bike","2022-05-14 15:17:54","2022-05-14 15:31:51","Racine Ave & 18th St","13164","Clinton St & 18th St","TA1307000044",41.858166,-87.6564573333333,41.85795,-87.640826,"casual"
"1828BAB88B54F568","classic_bike","2022-05-27 22:24:22","2022-05-27 22:37:18","Daley Center Plaza","TA1306000010","Sangamon St & Washington Blvd","13409",41.884241,-87.629634,41.883165,-87.6511,"casual"
"CB1CEA87CECE3AC8","classic_bike","2022-05-26 16:14:40","2022-05-26 16:35:48","Clinton St & Jackson Blvd","638","Ritchie Ct & Banks St","KA1504000134",41.8783166118307,-87.6409810781479,41.906866,-87.626217,"casual"
"91E20C6E5A968953","electric_bike","2022-05-09 07:35:30","2022-05-09 07:39:51","Canal St & Adams St","13011","","",41.8794901666667,-87.6398505,41.88,-87.65,"member"
"73072B7EF7650A54","classic_bike","2022-05-04 16:38:16","2022-05-04 16:48:33","Clark St & Grace St","TA1307000127","Racine Ave & Fullerton Ave","TA1306000026",41.95078,-87.659172,41.92556258,-87.65840426,"member"
"460B8D1979E67633","classic_bike","2022-05-27 00:54:59","2022-05-27 01:02:56","Wabash Ave & Grand Ave","TA1307000117","Michigan Ave & Pearson St","13034",41.891466,-87.626761,41.89766,-87.62351,"casual"
"B6DD309F290959F1","electric_bike","2022-05-05 08:12:56","2022-05-05 08:17:02","Wells St & Hubbard St","TA1307000151","LaSalle St & Washington St","13006",41.8901625,-87.6343303333333,41.882664,-87.63253,"casual"
"88662E5B082F906B","classic_bike","2022-05-05 13:35:19","2022-05-05 13:40:48","Desplaines St & Kinzie St","TA1306000003","Franklin St & Illinois St","RN-",41.888716036,-87.6444478533,41.8910233102519,-87.6354798674583,"member"
"D1FBD6E48B0445FD","classic_bike","2022-05-18 17:39:11","2022-05-18 18:07:30","Dearborn St & Van Buren St","624","Adler Planetarium","13431",41.876268,-87.629155,41.866095,-87.607267,"casual"
"DAE79A696D5F38F4","electric_bike","2022-05-13 13:15:15","2022-05-13 13:29:10","Wabash Ave & 9th St","TA1309000010","","",41.8707835,-87.6258693333333,41.89,-87.62,"member"
"B27BC6C16FBB599A","electric_bike","2022-05-24 18:53:04","2022-05-24 19:00:39","Ogden Ave & Race Ave","13194","Honore St & Division St","TA1305000034",41.891759515,-87.658827186,41.903119,-87.673935,"member"
"B8AD63AD28A345A1","classic_bike","2022-05-07 21:59:43","2022-05-07 22:10:56","Wells St & Evergreen Ave","TA1308000049","Kingsbury St & Kinzie St","KA1503000043",41.906724,-87.63483,41.88917683258,-87.6385057718,"casual"
"73BCE9BF6C93C87A","electric_bike","2022-05-28 22:43:10","2022-05-28 23:08:45","Streeter Dr & Grand Ave","13022","Michigan Ave & 14th St","TA1307000124",41.8922745,-87.6121438333333,41.864059,-87.623727,"casual"
"FD1E8BB16AA82BBF","electric_bike","2022-05-10 23:36:19","2022-05-10 23:58:20","","","","",41.77,-87.7,41.77,-87.7,"casual"
"E9A047A55E3452E1","classic_bike","2022-05-15 13:57:04","2022-05-15 14:15:02","Clarendon Ave & Junior Ter","13389","Broadway & Thorndale Ave","15575",41.961004,-87.649603,41.98974251144,-87.6601406209,"member"
"7660A005AA128BCE","classic_bike","2022-05-29 01:27:18","2022-05-29 01:53:03","Wells St & Elm St","KA1504000135","Ashland Ave & Division St","13061",41.903222,-87.634324,41.90345,-87.667747,"casual"
"C17453127677C3E1","electric_bike","2022-05-30 17:36:23","2022-05-30 17:46:10","Michigan Ave & Washington St","13001","State St & Chicago Ave","21544",41.8841485,-87.6248698333333,41.8966172004075,-87.628578543663,"member"
"3AC357ABE711F8C3","electric_bike","2022-05-12 22:28:33","2022-05-12 22:32:43","","","University Ave & 57th St","KA1503000071",41.8,-87.6,41.791478,-87.599861,"member"
"C144F06E921B69B2","docked_bike","2022-05-26 17:24:41","2022-05-26 20:14:11","Calumet Ave & 21st St","15546","Calumet Ave & 21st St","15546",41.854184,-87.619154,41.854184,-87.619154,"casual"
"2D6AAAC255B40A0A","classic_bike","2022-05-12 17:08:26","2022-05-12 17:17:51","Sheridan Rd & Noyes St (NU)","604","Benson Ave & Church St","596",42.058239,-87.677432,42.048214,-87.683485,"member"
"3308985B5F00CEAC","classic_bike","2022-05-22 16:16:05","2022-05-22 16:29:13","Columbus Dr & Randolph St","13263","Desplaines St & Randolph St","15535",41.884728,-87.619521,41.88461618962,-87.6445705849,"member"
"5AD0072DC9ACAD70","classic_bike","2022-05-08 13:51:37","2022-05-08 14:06:02","Woodlawn Ave & 55th St","TA1307000164","Shore Dr & 55th St","TA1308000009",41.795264,-87.596471,41.795212,-87.580715,"casual"
"70AF1817E840C477","classic_bike","2022-05-29 15:15:40","2022-05-29 15:33:59","Aberdeen St & Randolph St","18062","Clark St & Lake St","KA1503000012",41.884114,-87.654264,41.88602082773,-87.6308760584,"casual"
"880E564E7C538907","electric_bike","2022-05-18 16:05:20","2022-05-18 16:46:12","Ashland Ave & 71st St","742","Cottage Grove Ave & 83rd St","585",41.77,-87.66,41.743441,-87.604836,"member"
"76FFDE474074282E","electric_bike","2022-05-22 20:34:41","2022-05-22 20:42:34","Milwaukee Ave & Wabansia Ave","13243","","",41.9126441666667,-87.6813526666667,41.93,-87.71,"casual"
"87CD0AEF301C2021","electric_bike","2022-05-11 00:38:59","2022-05-11 00:46:21","Damen Ave & Leland Ave","TA1307000158","","",41.967136383,-87.679034233,41.96,-87.66,"casual"
"31F270D872BC7255","classic_bike","2022-05-14 19:48:06","2022-05-14 19:53:31","Wells St & Concord Ln","TA1308000050","Wells St & Elm St","KA1504000135",41.912133,-87.634656,41.903222,-87.634324,"casual"
"55AE90C1781D898B","electric_bike","2022-05-24 21:55:26","2022-05-24 22:09:59","DuSable Lake Shore Dr & Diversey Pkwy","TA1309000039","Broadway & Argyle St","13108",41.9325498333333,-87.6364241666667,41.973815,-87.65966,"casual"
"A0B997A2486BDC9A","electric_bike","2022-05-30 11:02:20","2022-05-30 11:06:25","Franklin St & Adams St (Temp)","TA1309000008","Franklin St & Adams St (Temp)","TA1309000008",41.8788801666667,-87.635307,41.8794340914001,-87.6355040073395,"casual"
"F3D1858E06DCDDA3","classic_bike","2022-05-18 16:57:36","2022-05-18 17:20:45","Kedzie Ave & Palmer Ct","13292","Wells St & Concord Ln","TA1308000050",41.921525,-87.707322,41.912133,-87.634656,"member"
"877F399F1C2CC8F8","classic_bike","2022-05-16 22:12:28","2022-05-16 22:21:03","Clark St & Elm St","TA1307000039","Larrabee St & Kingsbury St","TA1306000009",41.902973,-87.63128,41.897764,-87.642884,"casual"
"766C80C4A403124A","electric_bike","2022-05-14 20:59:24","2022-05-14 21:02:04","Elizabeth (May) St & Fulton St","13197","Ogden Ave & Race Ave","13194",41.8865458333333,-87.6585231666667,41.891795,-87.658751,"casual"
"47292FFDD4474D2F","electric_bike","2022-05-25 06:42:16","2022-05-25 06:45:42","","","","",41.93,-87.64,41.94,-87.64,"member"
"5AB250E7C2BB018C","classic_bike","2022-05-31 07:41:12","2022-05-31 07:45:50","Wells St & Hubbard St","TA1307000151","Wacker Dr & Washington St","KA1503000072",41.889906,-87.634266,41.8831433643902,-87.6372420787811,"member"
"E91BBE55B47A9A92","classic_bike","2022-05-17 13:02:43","2022-05-17 13:17:10","Montrose Harbor","TA1308000012","Pine Grove Ave & Irving Park Rd","TA1308000022",41.963982,-87.638181,41.954383,-87.648043,"member"
"129F02B915BE8471","electric_bike","2022-05-16 16:11:31","2022-05-16 16:29:00","Michigan Ave & Lake St","TA1305000011","Morgan St & Polk St","TA1307000130",41.8861521666667,-87.6251643333333,41.871737,-87.65103,"member"
"1C93BC3011D92441","electric_bike","2022-05-19 12:26:41","2022-05-19 12:32:46","Aberdeen St & Monroe St","13156","","",41.880361,-87.6556936666667,41.89,-87.65,"member"
"84A2D3E55CB57ABB","electric_bike","2022-05-11 20:55:47","2022-05-11 21:11:24","Aberdeen St & Monroe St","13156","Morgan Ave & 14th Pl","TA1306000002",41.8804533333333,-87.6556853333333,41.862378,-87.651062,"casual"
"738D3D77422E7B7C","classic_bike","2022-05-22 15:50:07","2022-05-22 15:56:18","Clark St & Armitage Ave","13146","Halsted St & Dickens Ave","13192",41.918306,-87.636282,41.919936,-87.64883,"member"
"C621B83743B65714","classic_bike","2022-05-13 12:58:10","2022-05-13 13:09:02","Clark St & Drummond Pl","TA1307000142","Southport Ave & Irving Park Rd","TA1309000043",41.931248,-87.644336,41.954177,-87.664358,"member"
"769B17178D4EADF0","electric_bike","2022-05-14 18:53:27","2022-05-14 20:19:34","Streeter Dr & Grand Ave","13022","Streeter Dr & Grand Ave","13022",41.8922246666667,-87.6119696666667,41.892278,-87.612043,"casual"
"DB6F6C84E852BAD1","electric_bike","2022-05-24 09:56:50","2022-05-24 09:57:35","","","","",41.88,-87.65,41.88,-87.65,"casual"
"688090BC7C115EFE","classic_bike","2022-05-07 09:08:22","2022-05-07 09:10:19","Indiana Ave & Roosevelt Rd","SL-005","Wabash Ave & Roosevelt Rd","TA1305000002",41.867888,-87.623041,41.867227,-87.625961,"member"
"E957F41B3CB94953","classic_bike","2022-05-22 17:27:56","2022-05-22 17:31:09","Bissell St & Armitage Ave","13059","Halsted St & Willow St","TA1307000166",41.9180181423719,-87.6521819829941,41.913865,-87.648755,"member"
"F4A90F74744A3552","classic_bike","2022-05-24 13:56:39","2022-05-24 14:32:41","California Ave & Division St","13256","Lincoln Ave & Belmont Ave","TA1309000042",41.903029,-87.697474,41.939365,-87.668385,"casual"
"25D13F353ABE7877","classic_bike","2022-05-31 19:53:09","2022-05-31 20:08:32","Clark St & Ida B Wells Dr","TA1305000009","Racine Ave & 15th St","13304",41.8759326655,-87.6305845355,41.861267,-87.656625,"member"
"383679E6C81D0011","electric_bike","2022-05-13 23:39:14","2022-05-13 23:53:09","Leavitt St & North Ave","TA1308000005","","",41.9100066666667,-87.6823338333333,41.92,-87.71,"member"
"E5143A0223C749D4","electric_bike","2022-05-16 12:42:44","2022-05-16 13:01:10","Streeter Dr & Grand Ave","13022","Shedd Aquarium","15544",41.8924081666667,-87.612104,41.86722595682,-87.6153553902,"casual"
"00E1E36986AB1C54","classic_bike","2022-05-16 22:09:34","2022-05-16 22:14:12","Southport Ave & Roscoe St","13071","Lincoln Ave & Roscoe St*","chargingstx5",41.943739,-87.66402,41.9433502470174,-87.6706677675247,"casual"
"9E167DEA9407A829","classic_bike","2022-05-12 15:56:23","2022-05-12 16:05:22","University Ave & 57th St","KA1503000071","Lake Park Ave & 53rd St","KA1503000059",41.791478,-87.599861,41.79949429373,-87.5864498959,"member"
"4616C6C404C78F5D","classic_bike","2022-05-13 12:15:37","2022-05-13 13:16:26","Sheffield Ave & Webster Ave","TA1309000033","DuSable Lake Shore Dr & Monroe St","13300",41.92154,-87.653818,41.880958,-87.616743,"casual"
"197E3579999C4DF5","classic_bike","2022-05-25 14:55:48","2022-05-25 15:11:51","Clinton St & Jackson Blvd","638","Noble St & Milwaukee Ave","13290",41.8783166118307,-87.6409810781479,41.90068,-87.6626,"casual"
"AF689924DC7D517C","electric_bike","2022-05-09 17:35:52","2022-05-09 17:54:47","","","Morgan St & Lake St*","chargingstx4",41.91,-87.64,41.8854917062691,-87.6522892713547,"casual"
"756FAA74C0F0B97C","electric_bike","2022-05-26 11:22:49","2022-05-26 11:36:51","","","St. Louis Ave & Fullerton Ave","KA1504000090",41.93,-87.68,41.9248155968119,-87.714495062828,"member"
"66F2F16452CA7D42","classic_bike","2022-05-21 14:07:40","2022-05-21 14:55:21","Wabash Ave & Roosevelt Rd","TA1305000002","Wabash Ave & Roosevelt Rd","TA1305000002",41.867227,-87.625961,41.867227,-87.625961,"member"
"4AFBEA34BE657E37","docked_bike","2022-05-14 16:53:14","2022-05-14 18:00:02","Morgan St & Lake St","TA1306000015","Fairbanks Ct & Grand Ave","TA1305000003",41.885779,-87.651025,41.891847,-87.62058,"casual"
"ADC2DE4C4E43E844","electric_bike","2022-05-08 21:19:41","2022-05-08 21:34:30","Peoria St & Jackson Blvd","13158","Columbus Dr & Randolph St","13263",41.877647,-87.6492593333333,41.884728,-87.619521,"member"
"F3BCE0A08FF12B9F","classic_bike","2022-05-22 17:24:52","2022-05-22 17:53:49","Southport Ave & Clark St","TA1308000047","Damen Ave & Cortland St","13133",41.957081,-87.664199,41.915983,-87.677335,"member"
"D493629D88295381","electric_bike","2022-05-21 17:34:58","2022-05-21 17:38:56","Sheffield Ave & Fullerton Ave","TA1306000016","","",41.9256,-87.6536915,41.93,-87.65,"member"
"391B95A049F0F933","classic_bike","2022-05-30 13:09:57","2022-05-30 13:23:40","Wells St & Huron St","TA1306000012","Michigan Ave & Oak St","13042",41.894722,-87.634362,41.90096039,-87.62377664,"member"
"86AC96D068F2D8AA","electric_bike","2022-05-20 21:04:41","2022-05-20 21:14:36","Greenview Ave & Diversey Pkwy","13294","Sheffield Ave & Waveland Ave","TA1307000126",41.932585,-87.665878,41.949399,-87.654529,"member"
"25126AAC5F0331B2","electric_bike","2022-05-20 17:15:20","2022-05-20 17:27:26","Desplaines St & Randolph St","15535","Sheffield Ave & Willow St","TA1306000032",41.884609103,-87.644558549,41.913688,-87.652855,"member"
"84D191E3D73A3131","classic_bike","2022-05-13 21:16:17","2022-05-13 23:26:20","Franklin St & Illinois St","RN-","Kingsbury St & Kinzie St","KA1503000043",41.8910233102519,-87.6354798674583,41.88917683258,-87.6385057718,"casual"
"D93EB5F0B7830016","classic_bike","2022-05-05 07:43:29","2022-05-05 08:02:14","Franklin St & Monroe St","TA1309000007","Wood St & Taylor St (Temp)","13285",41.880317,-87.635185,41.8692652184382,-87.6737308502197,"member"
"3517C80372F456B0","classic_bike","2022-05-10 22:50:28","2022-05-10 22:58:18","Fairbanks Ct & Grand Ave","TA1305000003","State St & Randolph St","TA1305000029",41.8918473721099,-87.6205801963806,41.8846210725794,-87.6278342306614,"member"
"CC4B265DF47661D9","classic_bike","2022-05-26 18:15:44","2022-05-26 19:20:34","Clark St & Lincoln Ave","13179","Larrabee St & Armitage Ave","TA1309000006",41.915689,-87.6346,41.918084,-87.643749,"casual"
"829AA33A5FD288A7","electric_bike","2022-05-12 07:24:43","2022-05-12 07:40:09","","","Clinton St & Washington Blvd","WL-012",41.93,-87.64,41.88338,-87.64117,"casual"
"7AC9019065C18A38","classic_bike","2022-05-17 13:51:38","2022-05-17 14:08:50","Racine Ave & Belmont Ave","TA1308000019","Oakley Ave & Irving Park Rd","KA1504000158",41.939743,-87.658865,41.95434085219,-87.6860796243,"casual"
"A4B03401E41FCE02","classic_bike","2022-05-28 20:26:50","2022-05-28 20:50:12","Theater on the Lake","TA1308000001","Ogden Ave & Race Ave","13194",41.926277,-87.630834,41.891795,-87.658751,"member"
"0F8A7D430B9EFBEF","classic_bike","2022-05-26 17:06:46","2022-05-26 17:33:46","Canal St & Madison St","13341","Greenview Ave & Fullerton Ave","TA1307000001",41.882091,-87.639833,41.92533,-87.6658,"member"
"28A069C0ED791857","classic_bike","2022-05-29 10:25:47","2022-05-29 10:29:10","Financial Pl & Ida B Wells Dr","SL-010","Federal St & Polk St","SL-008",41.8750236280333,-87.6330940425396,41.87207763285,-87.6295437729,"member"
"94B4A52B3EB0B15F","classic_bike","2022-05-16 09:07:01","2022-05-16 09:23:54","Eckhart Park","13289","Mies van der Rohe Way & Chicago Ave","13338",41.89637337,-87.66098386,41.8969446263708,-87.6217576861382,"member"
"5CD49ED8A5227086","electric_bike","2022-05-20 12:32:28","2022-05-20 12:36:23","","","","",42.01,-87.68,42.01,-87.68,"casual"
"27258654F81E449A","electric_bike","2022-05-09 16:36:39","2022-05-09 16:42:59","Elizabeth (May) St & Fulton St","13197","Artesian Ave & Hubbard St","15664",41.8865523333333,-87.6585096666667,41.88949181977,-87.6882193648,"member"
"054EB75278BBE3FF","classic_bike","2022-05-10 22:33:11","2022-05-10 23:13:47","Halsted St & Maxwell St","TA1309000001","Halsted St & Maxwell St","TA1309000001",41.864883,-87.647071,41.864883,-87.647071,"casual"
"4CB05E018EF3FE0F","electric_bike","2022-05-09 07:02:10","2022-05-09 07:21:03","","","","",41.9,-87.68,41.89,-87.63,"member"
"252A7208A80092D2","classic_bike","2022-05-01 14:23:26","2022-05-01 14:54:59","Streeter Dr & Grand Ave","13022","Southport Ave & Belmont Ave","13229",41.892278,-87.612043,41.9394777504051,-87.6637476682663,"casual"
"47DDE735A43BC96B","electric_bike","2022-05-02 22:00:34","2022-05-02 22:07:31","Aberdeen St & Jackson Blvd","13157","Ogden Ave & Race Ave","13194",41.877788,-87.654864,41.891795,-87.658751,"member"
"BCEF3551714E38AE","classic_bike","2022-05-28 11:52:48","2022-05-28 11:59:21","Wells St & Elm St","KA1504000135","Dearborn St & Erie St","13045",41.903222,-87.634324,41.893992,-87.629318,"member"
"7C8B7F815625DE5C","classic_bike","2022-05-11 06:46:52","2022-05-11 06:56:37","Wells St & Polk St","SL-011","Paulina St & Flournoy St","KA1504000104",41.872596,-87.633502,41.87295,-87.66913,"casual"
"54BD9D68FF5F90D7","electric_bike","2022-05-12 15:38:25","2022-05-12 15:53:35","","","Clark St & Wrightwood Ave","TA1305000014",41.89,-87.63,41.929546,-87.643118,"member"
"6C61F64A1C5F0680","electric_bike","2022-05-03 16:20:33","2022-05-03 16:24:30","Franklin St & Lake St","TA1307000111","Michigan Ave & Lake St","TA1305000011",41.8859043333333,-87.635646,41.886024,-87.624117,"member"
"C2D1ED58752AA4EB","classic_bike","2022-05-25 17:37:42","2022-05-25 17:52:36","Clinton St & Madison St","TA1305000032","Sedgwick St & Schiller St","TA1307000143",41.882242,-87.641066,41.907626,-87.638566,"member"
"5C7A759775F801A1","electric_bike","2022-05-21 11:52:12","2022-05-21 11:59:19","","","Ravenswood Ave & Irving Park Rd","TA1307000149",41.95,-87.65,41.95469,-87.67393,"member"
"E87D64DDAAFDAD45","classic_bike","2022-05-23 12:11:19","2022-05-23 12:20:00","Ravenswood Ave & Lawrence Ave","TA1309000066","Clark St & Bryn Mawr Ave","KA1504000151",41.96909,-87.674237,41.983593,-87.669154,"casual"
"09D95AE4910A2D02","classic_bike","2022-05-10 19:26:12","2022-05-10 19:34:13","Lincoln Ave & Diversey Pkwy","TA1307000064","Sheffield Ave & Webster Ave","TA1309000033",41.932225,-87.658617,41.92154,-87.653818,"member"
"EBA13446F11D3B44","electric_bike","2022-05-28 16:32:35","2022-05-28 16:45:51","Halsted St & Wrightwood Ave","TA1309000061","Wilton Ave & Belmont Ave","TA1307000134",41.9292051666667,-87.6491476666667,41.94018,-87.65304,"member"
"1742BE3BA46D311C","classic_bike","2022-05-30 09:41:54","2022-05-30 09:54:47","Southport Ave & Waveland Ave","13235","DuSable Lake Shore Dr & Wellington Ave","TA1307000041",41.94815,-87.66394,41.9366884494997,-87.6368290185928,"member"
"E1537C895ACABE70","classic_bike","2022-05-29 15:28:55","2022-05-29 15:55:19","Michigan Ave & Oak St","13042","Loomis St & Lexington St","13332",41.90096039,-87.62377664,41.872187,-87.661501,"casual"
"F228369C8A70B8AB","electric_bike","2022-05-10 16:30:15","2022-05-10 17:20:21","","","","",41.91,-87.75,41.91,-87.76,"casual"
"D1418021923837B2","electric_bike","2022-05-01 11:29:27","2022-05-01 11:56:59","Stetson Ave & South Water St","TA1308000029","McCormick Place","TA1305000004",41.8865778333333,-87.6221773333333,41.8513751729,-87.6188346489,"casual"
"A102B7F5B193D18F","electric_bike","2022-05-28 12:10:05","2022-05-28 12:25:00","Broadway & Belmont Ave","13277","Bissell St & Armitage Ave*","chargingstx1",41.940151572,-87.645491004,41.9182955629354,-87.6521833240986,"casual"
"EE4B73B30943D15D","classic_bike","2022-05-24 07:48:28","2022-05-24 08:04:51","Lincoln Ave & Roscoe St","TA1307000138","Kimball Ave & Belmont Ave","KA150400009X",41.9437851649707,-87.6712511479855,41.939398,-87.711561,"member"
"2410256F9F61A8E3","electric_bike","2022-05-18 08:21:48","2022-05-18 09:03:30","Clark St & 9th St (AMLI)","SL-009","","",41.8706956666667,-87.6311506666667,41.87,-87.63,"member"
"C755DB1F4A2E0DF4","electric_bike","2022-05-30 12:07:41","2022-05-30 12:16:12","","","May St & Cullerton St","13331",41.86,-87.65,41.855136,-87.654127,"casual"
"6AE8829430C84149","electric_bike","2022-05-26 12:01:49","2022-05-26 12:06:03","Wilton Ave & Diversey Pkwy","TA1306000014","Wilton Ave & Diversey Pkwy","TA1306000014",41.9324188333333,-87.6526898333333,41.932418,-87.652705,"member"
"A257EBE2F1179B27","docked_bike","2022-05-19 22:52:51","2022-05-19 23:09:15","Milwaukee Ave & Grand Ave","13033","Sheffield Ave & Fullerton Ave","TA1306000016",41.891578,-87.648384,41.925602,-87.653708,"casual"
"7D19C86D3523B87C","electric_bike","2022-05-07 10:56:46","2022-05-07 11:15:34","Morgan St & Polk St","TA1307000130","Wolcott Ave & Polk St","TA1309000064",41.8720119,-87.650913715,41.871262,-87.673688,"casual"
"A5691EC853BF4AA2","electric_bike","2022-05-14 13:23:30","2022-05-14 13:28:22","","","","",41.79,-87.6,41.78,-87.6,"member"
"7BB18A9EC5680DC1","classic_bike","2022-05-07 13:17:26","2022-05-07 14:54:38","Lakefront Trail & Bryn Mawr Ave","15576","Streeter Dr & Grand Ave","13022",41.9840441151921,-87.6522812247276,41.892278,-87.612043,"casual"
"BE96247111056F60","electric_bike","2022-05-31 11:41:03","2022-05-31 11:49:43","Montrose Harbor","TA1308000012","","",41.9639111666667,-87.6381675,41.95,-87.65,"member"
"1FB4807886A04CC8","electric_bike","2022-05-21 10:41:57","2022-05-21 10:46:10","","","","",41.93,-87.65,41.93,-87.64,"member"
"1E78356D6D707B37","classic_bike","2022-05-28 18:55:57","2022-05-28 19:00:01","Franklin St & Jackson Blvd","TA1305000025","Wells St & Polk St","SL-011",41.8777079559,-87.6353211408,41.8727315422631,-87.6335164904594,"member"
"DD8BC05F6C3F8D7D","electric_bike","2022-05-13 16:20:38","2022-05-13 16:33:48","Lakefront Trail & Bryn Mawr Ave","15576","Sheridan Rd & Montrose Ave","TA1307000107",41.9840196666667,-87.652348,41.96167,-87.65464,"casual"
"D71EA7077AE17B60","classic_bike","2022-05-26 17:53:41","2022-05-26 18:00:43","State St & Pearson St","TA1307000061","Kingsbury St & Kinzie St","KA1503000043",41.897448,-87.628722,41.88917683258,-87.6385057718,"member"
"F1E292A48AD96D89","classic_bike","2022-05-16 02:07:44","2022-05-16 02:32:50","University Library (NU)","605","Clark St & Schreiber Ave","KA1504000156",42.052939,-87.673447,41.99925182186,-87.6713773393,"member"
"7486F5233E483AAE","electric_bike","2022-05-16 11:24:23","2022-05-16 11:43:12","Shedd Aquarium","15544","Millennium Park","13008",41.8672146666667,-87.6152881666667,41.8810317,-87.62408432,"casual"
"776C7DD3DCA8807E","classic_bike","2022-05-08 12:12:24","2022-05-08 12:20:12","LaSalle St & Jackson Blvd","TA1309000004","Indiana Ave & Roosevelt Rd","SL-005",41.878166,-87.631929,41.867888,-87.623041,"member"
"162B1EFD038592FF","electric_bike","2022-05-21 20:27:46","2022-05-21 20:40:07","","","Avers Ave & Belmont Ave","15640",41.93,-87.69,41.939408,-87.723574,"member"
"C816B4D34D2999AD","electric_bike","2022-05-28 21:37:00","2022-05-28 21:53:08","Western Ave & Congress Pkwy","15668","Throop St & Taylor St","13139",41.8745645,-87.6861301666667,41.868968,-87.659141,"member"
"464FF1F611B64125","classic_bike","2022-05-20 16:10:21","2022-05-20 16:49:34","Greenwood Ave & 47th St","TA1308000002","Greenwood Ave & 47th St","TA1308000002",41.809835,-87.599383,41.809835,-87.599383,"member"
"31BB7929DC7DC576","electric_bike","2022-05-05 09:27:43","2022-05-05 09:33:37","","","Wells St & Huron St","TA1306000012",41.9,-87.62,41.894722,-87.634362,"casual"
"D0EF2DBE5B76704A","classic_bike","2022-05-23 21:24:10","2022-05-23 21:29:10","State St & Chicago Ave","21544","Wells St & Huron St","TA1306000012",41.8966172004075,-87.628578543663,41.894722,-87.634362,"member"
"57016DA8960D88B3","electric_bike","2022-05-04 16:43:11","2022-05-04 17:15:18","Franklin St & Lake St","TA1307000111","Lake Park Ave & 56th St","TA1309000063",41.885886,-87.6354361666667,41.793242,-87.587782,"member"
"8765676EE0B804A7","electric_bike","2022-05-28 15:37:53","2022-05-28 15:47:07","","","Halsted St & Willow St","TA1307000166",41.94,-87.65,41.913865,-87.648755,"member"
"379DE1DB8A495441","classic_bike","2022-05-08 14:28:43","2022-05-08 14:53:32","Wood St & Milwaukee Ave","13221","Damen Ave & Melrose Ave","13143",41.907655,-87.672552,41.9406,-87.6785,"casual"
"9204DE4F551B3190","electric_bike","2022-05-25 13:57:26","2022-05-25 14:10:58","","","","",41.81,-87.61,41.81,-87.62,"casual"
"099147350AB1F091","electric_bike","2022-05-13 21:49:02","2022-05-13 21:56:35","","","Sheffield Ave & Wrightwood Ave","TA1309000023",41.94,-87.65,41.928712,-87.653833,"casual"
"C53F457E4638465D","electric_bike","2022-05-23 14:11:05","2022-05-23 14:45:43","Broadway & Granville Ave","15571","Broadway & Belmont Ave","13277",41.9947685,-87.6602436666667,41.940106,-87.645451,"casual"
"EA60CB73437FB28F","classic_bike","2022-05-12 19:35:40","2022-05-12 19:36:31","Shedd Aquarium","15544","Shedd Aquarium","15544",41.86722595682,-87.6153553902,41.86722595682,-87.6153553902,"casual"
"0DE22B847B57E22D","electric_bike","2022-05-28 22:26:58","2022-05-28 22:32:06","Hoyne Ave & Balmoral Ave","655","Clark St & Bryn Mawr Ave","KA1504000151",41.9799796666667,-87.6819853333333,41.983593,-87.669154,"member"
"9AD1F4DF0FBA9BA8","classic_bike","2022-05-22 19:34:37","2022-05-22 19:56:20","Halsted St & Roscoe St","TA1309000025","Wells St & Concord Ln","TA1308000050",41.94367,-87.64895,41.912133,-87.634656,"casual"
"4722FF70A17A2D07","classic_bike","2022-05-29 12:03:26","2022-05-29 12:22:07","Broadway & Argyle St","13108","Lakefront Trail & Bryn Mawr Ave","15576",41.973815,-87.65966,41.9840441151921,-87.6522812247276,"casual"
"0DCB5BEC776B7282","classic_bike","2022-05-19 08:13:08","2022-05-19 08:38:33","Clark St & Armitage Ave","13146","Franklin St & Jackson Blvd","TA1305000025",41.918306,-87.636282,41.8777079559,-87.6353211408,"member"
"4D3D661FF19C64C1","classic_bike","2022-05-09 16:10:47","2022-05-09 16:28:24","Franklin St & Monroe St","TA1309000007","Sedgwick St & North Ave","TA1307000038",41.880317,-87.635185,41.911386,-87.638677,"member"
"AB03A98FC76F1AA4","electric_bike","2022-05-22 15:33:13","2022-05-22 15:38:50","Dearborn Pkwy & Delaware Pl","TA1307000128","Dearborn Pkwy & Delaware Pl","TA1307000128",41.898941,-87.6300005,41.898969,-87.629912,"casual"
"57CA6134D236FC66","classic_bike","2022-05-30 17:11:27","2022-05-30 17:37:36","Indiana Ave & Roosevelt Rd","SL-005","Streeter Dr & Grand Ave","13022",41.867888,-87.623041,41.892278,-87.612043,"casual"
"70FBFF3B0746351F","electric_bike","2022-05-26 20:55:14","2022-05-26 21:02:30","Clark St & Elm St","TA1307000039","McClurg Ct & Ohio St","TA1306000029",41.9026955,-87.6316916666667,41.8925921197097,-87.6172891259193,"member"
"76534F3C3119780D","classic_bike","2022-05-10 11:33:13","2022-05-10 11:49:49","Greenwood Ave & 47th St","TA1308000002","Shore Dr & 55th St","TA1308000009",41.809835,-87.599383,41.795212,-87.580715,"casual"
"B84F040FDF6503E6","classic_bike","2022-05-17 18:15:16","2022-05-17 18:24:47","Central Park Ave & Elbridge Ave","15644","Pulaski Rd & Eddy St (Temp)","KA1504000141",41.93533728263,-87.7168892935,41.946264,-87.731023,"member"
"950CD787BFAF8601","classic_bike","2022-05-25 09:05:38","2022-05-25 09:21:31","Southport Ave & Clybourn Ave","TA1309000030","Damen Ave & Pierce Ave","TA1305000041",41.920771,-87.663712,41.9093960065,-87.6776919292,"member"
"75B0666AC03180D3","docked_bike","2022-05-14 23:08:47","2022-05-15 00:06:19","Ashland Ave & Grand Ave","13434","Clark St & Newport St","632",41.891072,-87.666611,41.94454,-87.654678,"casual"
"67379719F3725F3A","electric_bike","2022-05-19 20:59:55","2022-05-19 21:25:34","","","","",41.95,-87.66,41.91,-87.68,"casual"
"125F0AB4F82E8683","electric_bike","2022-05-06 21:22:02","2022-05-06 21:25:35","Kedzie Ave & Leland Ave","KA1504000126","","",41.9666536666667,-87.7081796666667,41.98,-87.71,"member"
"658334C1099E58DF","classic_bike","2022-05-02 20:11:53","2022-05-02 20:24:43","Ashland Ave & Augusta Blvd","13248","Kingsbury St & Kinzie St","KA1503000043",41.899643,-87.6677,41.88917683258,-87.6385057718,"member"
"10186A9B1449F383","electric_bike","2022-05-09 09:15:44","2022-05-09 09:37:03","","","","",41.89,-87.68,41.89,-87.63,"casual"
"7B0969736A836968","docked_bike","2022-05-30 10:38:15","2022-05-30 11:02:33","Canal St & Madison St","13341","Dusable Harbor","KA1503000064",41.882091,-87.639833,41.886976,-87.612813,"casual"
"47828DACF128BC5D","electric_bike","2022-05-06 22:15:11","2022-05-06 22:21:57","","","","",41.94,-87.76,41.94,-87.78,"casual"
"80BAE01F01643746","electric_bike","2022-05-01 11:05:20","2022-05-01 11:14:22","","","","",41.9,-87.75,41.9,-87.75,"member"
"92A7C37C2C7FB474","classic_bike","2022-05-24 12:55:00","2022-05-24 13:03:58","Wood St & Augusta Blvd","657","Wood St & Augusta Blvd","657",41.899181,-87.6722,41.899181,-87.6722,"member"
"83C8866CBFECC8C4","classic_bike","2022-05-22 10:34:37","2022-05-22 10:46:23","Halsted St & Dickens Ave","13192","Theater on the Lake","TA1308000001",41.919936,-87.64883,41.926277,-87.630834,"casual"
"5E6DEA6369D4F2EC","classic_bike","2022-05-12 21:50:03","2022-05-12 22:04:58","Stetson Ave & South Water St","TA1308000029","Indiana Ave & Roosevelt Rd","SL-005",41.886835,-87.62232,41.867888,-87.623041,"casual"
"17A59C830330EC8A","classic_bike","2022-05-30 09:11:46","2022-05-30 10:56:40","Clark St & Lake St","KA1503000012","Clark St & Lake St","KA1503000012",41.88602082773,-87.6308760584,41.88602082773,-87.6308760584,"casual"
"A8A13BD50A8C238B","classic_bike","2022-05-20 11:31:51","2022-05-20 12:26:26","Wabash Ave & Grand Ave","TA1307000117","May St & Taylor St","13160",41.891466,-87.626761,41.8694821,-87.6554864,"casual"
"B48419E3BC1AFB57","electric_bike","2022-05-02 19:07:36","2022-05-02 19:24:58","","","Humboldt Blvd & Armitage Ave","15651",41.89,-87.64,41.91751339399,-87.7018089555,"member"
"5C40BDDCFB2F2C23","classic_bike","2022-05-23 18:12:20","2022-05-23 18:49:48","Dusable Harbor","KA1503000064","Dusable Harbor","KA1503000064",41.886976,-87.612813,41.886976,-87.612813,"casual"
"4CB6405897441DFF","electric_bike","2022-05-17 13:57:34","2022-05-17 14:10:48","Throop St & Taylor St","13139","Clinton St & Madison St","TA1305000032",41.868803,-87.6590513333333,41.882242,-87.641066,"member"
"204814852E8D0624","classic_bike","2022-05-23 19:32:25","2022-05-23 19:52:55","Theater on the Lake","TA1308000001","Dearborn Pkwy & Delaware Pl","TA1307000128",41.926277,-87.630834,41.898969,-87.629912,"member"
"27397810AF87634B","classic_bike","2022-05-28 14:59:59","2022-05-28 15:28:48","Lincoln Ave & Diversey Pkwy","TA1307000064","Wabash Ave & Grand Ave","TA1307000117",41.932225,-87.658617,41.891466,-87.626761,"casual"
"96A5E97025E51179","electric_bike","2022-05-24 16:59:14","2022-05-24 17:08:11","St. Clair St & Erie St","13016","Franklin St & Illinois St","RN-",41.8944281666667,-87.6228905,41.8910233102519,-87.6354798674583,"casual"
"BD65CBD2979D11DF","electric_bike","2022-05-15 12:57:11","2022-05-15 13:08:54","Wells St & Elm St","KA1504000135","Clark St & Lake St","KA1503000012",41.902943,-87.6344435,41.88602082773,-87.6308760584,"casual"
"1B6FDD896D0EF53E","classic_bike","2022-05-14 18:20:30","2022-05-14 18:30:19","Streeter Dr & Grand Ave","13022","Streeter Dr & Grand Ave","13022",41.892278,-87.612043,41.892278,-87.612043,"casual"
"FA44594D077AA665","classic_bike","2022-05-05 08:46:06","2022-05-05 08:52:37","Western Ave & Division St","13241","Ashland Ave & Division St","13061",41.902893,-87.687275,41.90345,-87.667747,"member"
"535673386543FDB9","electric_bike","2022-05-16 12:56:16","2022-05-16 13:08:47","2112 W Peterson Ave","KA1504000155","","",41.991146,-87.6835168333333,41.97,-87.69,"member"
"6B5F732C0E1C4253","docked_bike","2022-05-11 21:19:43","2022-05-11 22:03:07","Montrose Harbor","TA1308000012","Montrose Harbor","TA1308000012",41.963982,-87.638181,41.963982,-87.638181,"casual"
"36FF876E2F76579B","electric_bike","2022-05-20 08:58:28","2022-05-20 09:05:09","Wells St & Elm St","KA1504000135","Franklin St & Lake St","TA1307000111",41.9030828333333,-87.6347958333333,41.885837,-87.6355,"member"
"CE15145E0D50C415","electric_bike","2022-05-07 17:11:21","2022-05-07 17:21:28","California Ave & North Ave","13258","","",41.9104323333333,-87.697118,41.92,-87.69,"casual"
"0BC13BD1CB782262","docked_bike","2022-05-23 16:50:13","2022-05-23 17:46:46","Millennium Park","13008","Theater on the Lake","TA1308000001",41.881032,-87.624084,41.926277,-87.630834,"casual"
"A0EDD99F1CA9B8D9","electric_bike","2022-05-16 19:25:32","2022-05-16 19:44:59","Long Ave & Belden Ave","313","","",41.92,-87.76,41.92,-87.76,"casual"
"91185638EF96D130","classic_bike","2022-05-31 09:34:08","2022-05-31 09:38:34","Desplaines St & Kinzie St","TA1306000003","Orleans St & Merchandise Mart Plaza","TA1305000022",41.888716036,-87.6444478533,41.888243,-87.63639,"casual"
"D9E4D2F5CF209D98","classic_bike","2022-05-09 18:10:15","2022-05-09 18:39:49","State St & Randolph St","TA1305000029","Franklin St & Lake St","TA1307000111",41.8846210725794,-87.6278342306614,41.885837,-87.6355,"casual"
"C052DBCA55DFF6CA","docked_bike","2022-05-11 17:31:09","2022-05-11 18:39:59","Wells St & 19th St","SL-006","South Shore Dr & 67th St","KA1503000029",41.856802,-87.633879,41.773643,-87.567514,"casual"
"08C6FAF9A0B81CED","classic_bike","2022-05-12 17:20:43","2022-05-12 17:48:29","Michigan Ave & Oak St","13042","Sheffield Ave & Waveland Ave","TA1307000126",41.90096039,-87.62377664,41.949399,-87.654529,"member"
"6F9C53DF11A0030B","classic_bike","2022-05-01 16:05:01","2022-05-01 16:36:06","Wabash Ave & Grand Ave","TA1307000117","Clinton St & Madison St","TA1305000032",41.891466,-87.626761,41.882242,-87.641066,"casual"
"C2C4E80C3A0F25CA","electric_bike","2022-05-31 11:57:42","2022-05-31 12:04:15","Clark St & Elm St","TA1307000039","DuSable Lake Shore Dr & North Blvd","LF-005",41.902825,-87.6317806666667,41.911722,-87.626804,"member"
"2D0DF08068F0CF7C","docked_bike","2022-05-14 12:23:06","2022-05-14 12:56:20","Ravenswood Ave & Irving Park Rd","TA1307000149","Montrose Harbor","TA1308000012",41.95469,-87.67393,41.963982,-87.638181,"casual"
"7F8EF18F19EAB793","electric_bike","2022-05-24 21:00:03","2022-05-24 21:03:50","Halsted St & Wrightwood Ave","TA1309000061","Sheffield Ave & Fullerton Ave","TA1306000016",41.9291605,-87.6491371666667,41.9256018819,-87.6537080423,"member"
"94748DC476942F36","classic_bike","2022-05-14 11:22:52","2022-05-14 11:26:18","Franklin St & Chicago Ave","13017","Wells St & Elm St","KA1504000135",41.8967469730938,-87.6356676220894,41.903222,-87.634324,"member"
"999120F354937D5F","electric_bike","2022-05-20 12:55:19","2022-05-20 13:37:00","Phillips Ave & 79th St","579","","",41.7518333333333,-87.5652423333333,41.74,-87.55,"casual"
"EDE9D48E963AB10A","electric_bike","2022-05-29 12:05:08","2022-05-29 12:16:39","","","Avers Ave & Belmont Ave","15640",41.96,-87.7,41.939408,-87.723574,"casual"
"C3A9364681D4443F","electric_bike","2022-05-12 18:06:06","2022-05-12 18:46:12","","","","",41.85,-87.62,41.81,-87.61,"casual"
"57AB3E8BCBA0B6BB","electric_bike","2022-05-21 19:07:24","2022-05-21 19:32:30","Halsted St & Roscoe St","TA1309000025","Peoria St & Jackson Blvd","13158",41.94366,-87.648913,41.8776415962753,-87.6496177911758,"member"
"E50FD6EF9D8A1F45","electric_bike","2022-05-18 13:28:02","2022-05-18 13:30:24","Ellis Ave & 58th St","TA1309000011","","",41.7886085,-87.6010098333333,41.79,-87.6,"member"
"6DCA7C175C771A60","docked_bike","2022-05-31 21:38:30","2022-05-31 22:38:16","Albany Ave & Bloomingdale Ave","15655","Albany Ave & Bloomingdale Ave","15655",41.914027,-87.705126,41.914027,-87.705126,"casual"
"AF5ED116D0B77AB0","classic_bike","2022-05-19 13:57:49","2022-05-19 14:00:27","Ellis Ave & 55th St","KA1504000076","University Ave & 57th St","KA1503000071",41.79430062054,-87.6014497734,41.791478,-87.599861,"member"
"13C58CF025812B13","classic_bike","2022-05-29 11:21:22","2022-05-29 11:25:07","Clifton Ave & Armitage Ave","TA1307000163","Racine Ave & Fullerton Ave","TA1306000026",41.918216,-87.656936,41.92556258,-87.65840426,"member"
"CCE37A2A33A6A011","classic_bike","2022-05-07 11:39:15","2022-05-07 12:02:44","Michigan Ave & Pearson St","13034","Streeter Dr & Grand Ave","13022",41.89766,-87.62351,41.892278,-87.612043,"casual"
"0E093087F3B79218","classic_bike","2022-05-22 18:40:01","2022-05-22 18:57:48","California Ave & North Ave","13258","Clifton Ave & Armitage Ave","TA1307000163",41.9104754,-87.6968944,41.918216,-87.656936,"member"
"8279FC71ED2FB70B","electric_bike","2022-05-12 10:49:22","2022-05-12 11:05:21","Michigan Ave & Jackson Blvd","TA1309000002","McCormick Place","TA1305000004",41.8777896666667,-87.6240796666667,41.8513751729,-87.6188346489,"casual"
"BF588064BD9E033E","classic_bike","2022-05-02 09:07:16","2022-05-02 09:18:17","Ogden Ave & Chicago Ave","TA1305000020","Mies van der Rohe Way & Chicago Ave","13338",41.896362458,-87.6540612729,41.8969446263708,-87.6217576861382,"member"
"A41302100C766F68","classic_bike","2022-05-29 10:07:54","2022-05-29 10:30:00","Streeter Dr & Grand Ave","13022","Franklin St & Adams St (Temp)","TA1309000008",41.892278,-87.612043,41.8794340914001,-87.6355040073395,"member"
"EAC828903A8C31AB","electric_bike","2022-05-22 14:53:27","2022-05-22 15:08:45","Halsted St & Clybourn Ave","331","DuSable Lake Shore Dr & North Blvd","LF-005",41.9095008333333,-87.6481585,41.911722,-87.626804,"casual"
"5E5AC6FA99C2E557","classic_bike","2022-05-12 20:40:37","2022-05-12 20:52:06","Winchester Ave & Elston Ave","KA1504000140","Burling St & Diversey Pkwy","TA1309000036",41.92409085038,-87.6764600747,41.93314,-87.64776,"member"
"19A6A18441BF0B56","electric_bike","2022-05-09 09:34:16","2022-05-09 09:40:39","","","","",41.79,-87.6,41.79,-87.6,"casual"
"126FB7C015BAD05A","classic_bike","2022-05-16 15:42:52","2022-05-16 15:59:15","Clark St & Elmdale Ave","KA1504000148","Clark St & Elmdale Ave","KA1504000148",41.9908604481256,-87.6697236299515,41.9908604481256,-87.6697236299515,"casual"
"2DED67FD1665E41C","classic_bike","2022-05-04 17:39:16","2022-05-04 18:15:52","Sheridan Rd & Irving Park Rd","13063","Clinton St & Lake St","13021",41.954245,-87.654406,41.885637,-87.641823,"casual"
"0499D648289397FD","classic_bike","2022-05-26 18:43:56","2022-05-26 18:57:21","Cottage Grove Ave & 51st St","TA1309000067","Ellis Ave & 58th St","TA1309000011",41.803038,-87.606615,41.788746,-87.601334,"casual"
"A581AF97707DE358","electric_bike","2022-05-24 07:49:48","2022-05-24 08:06:48","Albany Ave & Belmont Ave","434","Sedgwick St & Webster Ave","13191",41.94,-87.71,41.922167,-87.638888,"member"
"3B2E930E63EDBAF8","electric_bike","2022-05-28 14:37:58","2022-05-28 15:06:13","Calumet Ave & 21st St","15546","Burnham Harbor","15545",41.8538421666667,-87.6189863333333,41.857411787074,-87.6137915253639,"casual"
"15FBF4EF5ECE209B","classic_bike","2022-05-04 23:06:24","2022-05-04 23:19:16","Halsted St & Clybourn Ave","331","Wells St & Huron St","TA1306000012",41.909668,-87.648128,41.894722,-87.634362,"casual"
"C0DD04625E0988AB","classic_bike","2022-05-13 23:13:16","2022-05-13 23:30:03","Franklin St & Illinois St","RN-","Damen Ave & Thomas St (Augusta Blvd)","TA1307000070",41.8910233102519,-87.6354798674583,41.901315,-87.677409,"member"
"8B5D4B9EE09B3028","classic_bike","2022-05-22 18:02:05","2022-05-22 18:41:23","Adler Planetarium","13431","Adler Planetarium","13431",41.866095,-87.607267,41.866095,-87.607267,"member"
"6E601FB89A9EC82E","electric_bike","2022-05-15 09:42:50","2022-05-15 10:26:49","Wabash Ave & Roosevelt Rd","TA1305000002","","",41.8672593333333,-87.6260198333333,41.86,-87.62,"casual"
"EBFC67B5FE40BEF2","electric_bike","2022-05-22 09:56:09","2022-05-22 10:03:26","","","","",41.94,-87.65,41.92,-87.64,"casual"
"836B6AE99FFED56F","classic_bike","2022-05-30 01:11:06","2022-05-30 01:45:29","Michigan Ave & Oak St","13042","Clifton Ave & Armitage Ave","TA1307000163",41.90096039,-87.62377664,41.918216,-87.656936,"casual"
"394C9A3A1BD082AF","electric_bike","2022-05-17 17:58:20","2022-05-17 18:04:01","Halsted St & Wrightwood Ave","TA1309000061","Southport Ave & Wellington Ave","TA1307000006",41.9292325,-87.6491198333333,41.935733,-87.663576,"member"
"18C6A6D5AA3C0C67","electric_bike","2022-05-22 01:33:41","2022-05-22 01:49:05","Dearborn St & Erie St","13045","Field Blvd & South Water St","15534",41.8941181666667,-87.6293705,41.88634906269,-87.6175165471,"casual"
"48F1A12679461553","classic_bike","2022-05-04 17:31:05","2022-05-04 17:34:32","Peoria St & Jackson Blvd","13158","Morgan St & Lake St","TA1306000015",41.8776415962753,-87.6496177911758,41.8857792524043,-87.6510246098041,"member"
"4A5F46F77322D72A","electric_bike","2022-05-30 16:50:56","2022-05-30 17:00:31","","","Carpenter St & Huron St","13196",41.91,-87.65,41.894556,-87.653449,"casual"
"8271E8CC07EE86E7","electric_bike","2022-05-28 18:55:28","2022-05-28 19:15:22","California Ave & North Ave","13258","Western Ave & Winnebago Ave","13068",41.9104543333333,-87.6970875,41.91552,-87.687022,"member"
"DD7A3D9DBB7FFDCB","classic_bike","2022-05-19 08:09:58","2022-05-19 08:36:44","Ashland Ave & Chicago Ave","13247","Michigan Ave & Madison St","13036",41.8951727127816,-87.6675470173359,41.882134,-87.625125,"member"
"C2039FE4A7D5D6B8","classic_bike","2022-05-07 08:43:00","2022-05-07 08:59:11","California Ave & North Ave","13258","Ashland Ave & Chicago Ave","13247",41.9104754,-87.6968944,41.8959743225961,-87.6677253842354,"member"
"7B7AA351C0535ADF","classic_bike","2022-05-09 11:25:09","2022-05-09 11:30:27","Clark St & Leland Ave","TA1309000014","Clark St & Leland Ave","TA1309000014",41.967096,-87.667429,41.967096,-87.667429,"member"
"5F69DE71BA502DE1","classic_bike","2022-05-25 10:29:14","2022-05-25 10:30:56","Ellis Ave & 55th St","KA1504000076","University Ave & 57th St","KA1503000071",41.79430062054,-87.6014497734,41.791478,-87.599861,"member"
"0341271C1B81BC51","classic_bike","2022-05-10 17:05:45","2022-05-10 17:16:01","Clark St & Schiller St","TA1309000024","Dearborn St & Erie St","13045",41.907993,-87.631501,41.893992,-87.629318,"member"
"D3A634EE60D99481","classic_bike","2022-05-16 12:22:30","2022-05-16 12:36:57","Marine Dr & Ainslie St","KA1504000171","Clark St & Bryn Mawr Ave","KA1504000151",41.9716,-87.650154,41.983593,-87.669154,"member"
"7168874B92F64B5B","electric_bike","2022-05-18 16:47:15","2022-05-18 16:54:46","Clark St & Leland Ave","TA1309000014","Clark St & Grace St","TA1307000127",41.967132,-87.6674878333333,41.95078,-87.659172,"casual"
"E7F0F0DD351EEAC4","electric_bike","2022-05-25 09:58:51","2022-05-25 10:06:06","","","","",41.99,-87.66,42.01,-87.66,"member"
"7FD84DC9F08ABA8A","classic_bike","2022-05-15 18:18:48","2022-05-15 18:27:57","Clark St & Armitage Ave","13146","Clark St & Drummond Pl","TA1307000142",41.918306,-87.636282,41.931248,-87.644336,"member"
"5BCF9F50212BB0FF","electric_bike","2022-05-17 18:21:21","2022-05-17 18:23:31","","","","",41.93,-87.69,41.94,-87.69,"member"
"F8A40016FED0A952","electric_bike","2022-05-05 17:25:43","2022-05-05 17:45:42","","","","",41.85,-87.68,41.85,-87.72,"casual"
"B4BCB9A44DA79264","classic_bike","2022-05-09 08:36:06","2022-05-09 08:46:36","Mies van der Rohe Way & Chicago Ave","13338","Clybourn Ave & Division St","TA1307000115",41.8969446263708,-87.6217576861382,41.904613,-87.640552,"member"
"E0CDA050F3ED92C8","classic_bike","2022-05-14 13:45:37","2022-05-14 14:23:22","Ashland Ave & Augusta Blvd","13248","DuSable Lake Shore Dr & North Blvd","LF-005",41.899643,-87.6677,41.911722,-87.626804,"casual"
"3BAFE1BD499B2F04","electric_bike","2022-05-16 06:35:20","2022-05-16 06:41:21","Clark St & Elm St","TA1307000039","Franklin St & Illinois St","RN-",41.9028663333333,-87.6316175,41.8910233102519,-87.6354798674583,"member"
"8EA0B6A46928C90C","electric_bike","2022-05-30 17:56:11","2022-05-30 18:06:30","DuSable Lake Shore Dr & Belmont Ave","TA1309000049","Lincoln Ave & Roscoe St*","chargingstx5",41.9407151666667,-87.6391433333333,41.9433502470174,-87.6706677675247,"casual"
"A046B693F172B6AC","classic_bike","2022-05-26 18:35:40","2022-05-26 18:44:18","Damen Ave & Pierce Ave","TA1305000041","Wood St & Chicago Ave","637",41.9093960065,-87.6776919292,41.895634,-87.672069,"member"
"6ED9F7808A04A9BE","electric_bike","2022-05-10 07:17:38","2022-05-10 07:27:49","Halsted St & Willow St","TA1307000166","Clinton St & Washington Blvd","WL-012",41.9138388333333,-87.6489111666667,41.88338,-87.64117,"member"
"554D7864B3034686","classic_bike","2022-05-10 18:25:21","2022-05-10 18:31:20","Milwaukee Ave & Grand Ave","13033","Clinton St & Madison St","TA1305000032",41.891578,-87.648384,41.882242,-87.641066,"casual"
"426EF502F8C33B25","classic_bike","2022-05-29 17:36:57","2022-05-29 18:28:09","Fort Dearborn Dr & 31st St","TA1307000048","Cornell Ave & Hyde Park Blvd","KA1503000007",41.838556,-87.608218,41.802406,-87.586924,"casual"
"E6643CDC16842629","classic_bike","2022-05-12 13:45:14","2022-05-12 13:56:25","Franklin St & Chicago Ave","13017","Franklin St & Chicago Ave","13017",41.8967469730938,-87.6356676220894,41.8967469730938,-87.6356676220894,"casual"
"165BB08655A9CEBA","classic_bike","2022-05-15 00:51:40","2022-05-15 01:09:14","Racine Ave & 18th St","13164","Racine Ave & 35th St","15446",41.858166,-87.656495,41.830688564721,-87.6562106609344,"member"
"3B56FD9223B8381F","classic_bike","2022-05-31 19:26:07","2022-05-31 19:53:02","DuSable Lake Shore Dr & Belmont Ave","TA1309000049","Broadway & Berwyn Ave","13109",41.940775,-87.639192,41.978353,-87.659753,"member"
"26F46E3BE7A96B67","classic_bike","2022-05-19 18:50:29","2022-05-19 18:59:57","Morgan St & Lake St","TA1306000015","Damen Ave & Chicago Ave","13132",41.8857792524043,-87.6510246098041,41.895769,-87.67722,"member"
"6AF87218B05E1CB6","classic_bike","2022-05-31 20:56:56","2022-05-31 21:06:58","Broadway & Argyle St","13108","Montrose Harbor","TA1308000012",41.973815,-87.65966,41.963982,-87.638181,"casual"
"C631EBA16F097803","electric_bike","2022-05-16 20:15:41","2022-05-16 20:22:55","State St & Chicago Ave","21544","Wells St & Hubbard St","TA1307000151",41.8966575,-87.6288623333333,41.889906,-87.634266,"member"
"52966720770306FD","classic_bike","2022-05-10 20:25:26","2022-05-10 21:02:44","Delano Ct & Roosevelt Rd","KA1706005007","Canal St & Taylor St","15550",41.867491,-87.63219,41.870257,-87.639474,"casual"
"507956CDD6F7783F","classic_bike","2022-05-10 20:11:05","2022-05-10 20:33:09","McClurg Ct & Ohio St","TA1306000029","Clark St & Lincoln Ave","13179",41.8925921197097,-87.6172891259193,41.915689,-87.6346,"member"
"3CA744943F42CD82","classic_bike","2022-05-31 20:52:53","2022-05-31 21:00:55","Sheffield Ave & Kingsbury St","13154","Wells St & Evergreen Ave","TA1308000049",41.910522,-87.653106,41.906724,-87.63483,"casual"
"160568A7FD0910D2","classic_bike","2022-05-27 20:39:32","2022-05-27 20:50:05","Lincoln Ave & Roscoe St*","chargingstx5","Broadway & Waveland Ave","13325",41.9433502470174,-87.6706677675247,41.949074,-87.648636,"member"
"AFCF1E6ADBA93253","classic_bike","2022-05-06 17:01:30","2022-05-06 17:24:41","Sheffield Ave & Waveland Ave","TA1307000126","Clark St & Elm St","TA1307000039",41.949399,-87.654529,41.902973,-87.63128,"member"
"50D0AFC6B08DF5BE","classic_bike","2022-05-09 19:53:34","2022-05-09 20:25:46","DuSable Lake Shore Dr & Wellington Ave","TA1307000041","Western Ave & Winnebago Ave","13068",41.9366884494997,-87.6368290185928,41.91552,-87.687022,"member"
"D754688D28125C01","electric_bike","2022-05-12 09:00:34","2022-05-12 09:04:59","","","Wabash Ave & Adams St","KA1503000015",41.88,-87.64,41.87947235235,-87.6256886059,"member"
"609018F3B68F2E4E","electric_bike","2022-05-14 09:55:42","2022-05-14 09:58:56","Washtenaw Ave & Lawrence Ave","KA1504000080","Western Ave & Leland Ave","TA1307000140",41.9687381666667,-87.6961316666667,41.966399801841,-87.6887042820454,"member"
"A7DF88F7ADEBE2B9","electric_bike","2022-05-23 11:24:30","2022-05-23 11:47:35","","","Damen Ave & Chicago Ave","13132",41.98,-87.67,41.895769,-87.67722,"member"
"5F88793D0AB2FAB3","electric_bike","2022-05-13 21:09:37","2022-05-13 21:20:43","Clark St & Newport St","632","Broadway & Barry Ave","13137",41.9444891666667,-87.6547243333333,41.9375823160063,-87.6440978050232,"casual"
"90293303A2F51CB1","classic_bike","2022-05-12 17:01:35","2022-05-12 17:14:15","Canal St & Adams St","13011","Morgan St & 18th St","13163",41.879255,-87.639904,41.858086,-87.651073,"member"
"4599E8B5F1F28AB9","electric_bike","2022-05-26 05:33:30","2022-05-26 05:44:25","","","","",41.97,-87.65,41.95,-87.65,"member"
"97984FE3E3AB4C72","classic_bike","2022-05-28 08:10:21","2022-05-28 10:28:55","Kosciuszko Park","15643","Conservatory Dr & Lake St","518",41.93058537138,-87.7237773635,41.885502,-87.716866,"casual"
"681CF3DF9BA7D991","classic_bike","2022-05-30 15:28:45","2022-05-30 16:22:22","Larrabee St & Division St","KA1504000079","Larrabee St & Division St","KA1504000079",41.90348607004,-87.6433534936,41.90348607004,-87.6433534936,"casual"
"E2702678FB5D34ED","electric_bike","2022-05-10 18:14:55","2022-05-10 18:24:17","Paulina Ave & North Ave","TA1305000037","Sheffield Ave & Wrightwood Ave","TA1309000023",41.910357833,-87.670076847,41.928712,-87.653833,"member"
"6D0235066792668C","electric_bike","2022-05-19 13:14:59","2022-05-19 13:48:27","Wacker Dr & Washington St","KA1503000072","Ashland Ave & Division St","13061",41.8836496666667,-87.637744,41.90345,-87.667747,"casual"
"6CD024A1665FDE80","classic_bike","2022-05-14 20:36:53","2022-05-14 20:42:31","Lincoln Ave & Diversey Pkwy","TA1307000064","Ashland Ave & Wrightwood Ave","13296",41.932225,-87.658617,41.92883,-87.668507,"member"
"689E91826A5014D4","electric_bike","2022-05-12 08:16:04","2022-05-12 08:16:42","State St & Van Buren St","TA1305000035","State St & Van Buren St","TA1305000035",41.8772361666667,-87.6279661666667,41.877181,-87.627844,"member"
"6433C6D96ACBD474","classic_bike","2022-05-04 15:08:41","2022-05-04 15:32:32","Franklin St & Jackson Blvd","TA1305000025","Rush St & Superior St","15530",41.8777079559,-87.6353211408,41.89576474564,-87.6259080327,"casual"
"CD59E942EDC70B10","electric_bike","2022-05-11 17:02:51","2022-05-11 17:27:30","Clark St & Chicago Ave","13303","Stockton Dr & Wrightwood Ave","13276",41.8964755,-87.630877,41.93132,-87.638742,"casual"
"581B2396F5A00B2A","classic_bike","2022-05-20 09:04:36","2022-05-20 09:08:58","Clinton St & Madison St","TA1305000032","Canal St & Harrison St","13326",41.882242,-87.641066,41.874255,-87.639573,"member"
"8B5FF86CCA82B90E","electric_bike","2022-05-14 13:34:00","2022-05-14 13:56:56","","","","",41.88,-87.66,41.87,-87.62,"casual"
"F15FA39D08A688A7","classic_bike","2022-05-12 17:52:08","2022-05-12 18:27:13","Morgan St & Lake St","TA1306000015","Clarendon Ave & Junior Ter","13389",41.8857792524043,-87.6510246098041,41.961004,-87.649603,"member"
"BD6BD80ADD132D47","classic_bike","2022-05-11 08:18:20","2022-05-11 08:46:50","Lincoln Ave & Waveland Ave","13253","Elizabeth (May) St & Fulton St","13197",41.948797,-87.675278,41.8866164860277,-87.6580399274826,"casual"
"A72F1264F97CA499","electric_bike","2022-05-22 18:03:40","2022-05-22 18:06:26","Broadway & Argyle St","13108","Sheridan Rd & Lawrence Ave","TA1309000041",41.9737781666667,-87.660034,41.969517,-87.654691,"member"
"E4B2FEA1DC275F65","electric_bike","2022-05-28 21:47:51","2022-05-28 22:00:58","Mies van der Rohe Way & Chestnut St","15529","","",41.8981523333333,-87.6227935,41.89,-87.61,"casual"
"8A62839959FE1430","classic_bike","2022-05-15 12:14:27","2022-05-15 12:24:45","Milwaukee Ave & Rockwell St","13242","Central Park Ave & Elbridge Ave","15644",41.9201955620057,-87.6926591992378,41.93533728263,-87.7168892935,"member"
"AB8BE87A5C1F147D","classic_bike","2022-05-13 08:19:53","2022-05-13 08:37:53","Clark St & Lincoln Ave","13179","LaSalle St & Jackson Blvd","TA1309000004",41.915689,-87.6346,41.878166,-87.631929,"member"
"2BE8F102C12E7233","classic_bike","2022-05-11 15:24:24","2022-05-11 15:28:48","Indiana Ave & Roosevelt Rd","SL-005","Indiana Ave & Roosevelt Rd","SL-005",41.867888,-87.623041,41.867888,-87.623041,"casual"
"0F3EC3A1BCC75CE1","electric_bike","2022-05-22 16:51:48","2022-05-22 16:56:17","Sheffield Ave & Webster Ave","TA1309000033","Halsted St & Willow St","TA1307000166",41.9218326666667,-87.653715,41.913865,-87.648755,"member"
"86A7E805825B69D0","electric_bike","2022-05-23 14:40:22","2022-05-23 14:47:16","Desplaines St & Jackson Blvd","15539","Kingsbury St & Erie St","13265",41.8780705,-87.6440531666667,41.8938080562436,-87.6416972279549,"casual"
"5B50E8D0AC541B3A","electric_bike","2022-05-13 13:22:37","2022-05-13 13:27:40","","","","",41.94,-87.69,41.93,-87.69,"casual"
"E48975B0E4371E8E","classic_bike","2022-05-15 12:34:31","2022-05-15 12:50:26","Larrabee St & Division St","KA1504000079","Aberdeen St & Randolph St","18062",41.90348607004,-87.6433534936,41.884114,-87.654264,"casual"
"F18B5FCC8588015D","classic_bike","2022-05-16 16:10:38","2022-05-16 16:21:01","Clark St & Randolph St","TA1305000030","Franklin St & Adams St (Temp)","TA1309000008",41.884576228,-87.63188991,41.8794340914001,-87.6355040073395,"casual"
"30CC82C8241C095D","classic_bike","2022-05-19 23:37:51","2022-05-19 23:44:33","Clifton Ave & Armitage Ave","TA1307000163","Damen Ave & Cortland St","13133",41.918216,-87.656936,41.915983,-87.677335,"casual"
"6E39D1DE73F49D26","electric_bike","2022-05-05 20:13:05","2022-05-05 20:19:25","W Armitage Ave & N Sheffield Ave","20254.0","","",41.92,-87.65,41.93,-87.67,"member"
"465B53BFE3AFBEFA","classic_bike","2022-05-25 06:01:54","2022-05-25 06:09:49","Wabash Ave & Roosevelt Rd","TA1305000002","Daley Center Plaza","TA1306000010",41.867227,-87.625961,41.884241,-87.629634,"member"
"14B8E7885E8BCBF5","classic_bike","2022-05-16 13:38:16","2022-05-16 13:54:09","Mies van der Rohe Way & Chicago Ave","13338","DuSable Lake Shore Dr & North Blvd","LF-005",41.8969446263708,-87.6217576861382,41.911722,-87.626804,"casual"
"5568204D09347C47","electric_bike","2022-05-19 17:17:56","2022-05-19 17:32:00","","","","",41.88,-87.64,41.89,-87.68,"member"
"5F1B5776368692AF","classic_bike","2022-05-26 18:39:54","2022-05-26 18:55:04","Morgan St & Lake St*","chargingstx4","Halsted St & Clybourn Ave","331",41.8854917062691,-87.6522892713547,41.909668,-87.648128,"member"
"F2D955916DE7B1E2","classic_bike","2022-05-09 18:02:16","2022-05-09 18:16:44","Christiana Ave & Lawrence Ave","15615","Damen Ave & Sunnyside Ave","TA1309000012",41.96835449363,-87.7118306675,41.96325,-87.679258,"member"
"490C3D0542D255D2","classic_bike","2022-05-31 13:46:01","2022-05-31 14:30:17","Broadway & Berwyn Ave","13109","Clark St & Chicago Ave","13303",41.978353,-87.659753,41.89675,-87.63089,"member"
"C32C38C2EE0287DF","electric_bike","2022-05-18 20:19:34","2022-05-18 20:56:00","Calumet Ave & 21st St","15546","Broadway & Waveland Ave","13325",41.8540638333333,-87.6191843333333,41.949074,-87.648636,"member"
"C668F7D2C8033045","electric_bike","2022-05-09 17:48:25","2022-05-09 17:57:37","New St & Illinois St","TA1306000013","Clinton St & Lake St","13021",41.8905926666667,-87.6185481666667,41.885637,-87.641823,"member"
"6BFBDDB47FCD460A","electric_bike","2022-05-08 20:09:55","2022-05-08 20:21:41","Ada St & Washington Blvd","13353","Damen Ave & Division St","13136",41.8828693333333,-87.6611901666667,41.903266,-87.678435,"casual"
"DCCC9E8C65FED684","electric_bike","2022-05-27 21:00:18","2022-05-27 21:15:28","Wells St & Evergreen Ave","TA1308000049","","",41.90671885,-87.635055661,41.93,-87.65,"member"
"1C5406A8F64D57C6","classic_bike","2022-05-23 14:49:10","2022-05-23 15:05:50","Wallace St & 35th St","TA1308000045","Clinton St & 18th St","TA1307000044",41.8307070514409,-87.6412553340197,41.85795,-87.640826,"member"
"E9F0D96A5E2A8890","electric_bike","2022-05-22 18:02:27","2022-05-22 18:40:57","Loomis St & Lexington St","13332","Sheffield Ave & Willow St","TA1306000032",41.872251,-87.6614363333333,41.913688,-87.652855,"member"
"F847794A64340FD3","classic_bike","2022-05-30 10:42:05","2022-05-30 11:00:19","Paulina Ave & North Ave","TA1305000037","Clark St & Lincoln Ave","13179",41.9098546521673,-87.6699301600456,41.915689,-87.6346,"casual"
"7D7EAA7115546BE5","electric_bike","2022-05-12 23:11:38","2022-05-12 23:27:28","Aberdeen St & Jackson Blvd","13157","Ashland Ave & Division St","13061",41.8778151666667,-87.654863,41.90345,-87.667747,"member"
"64A8ACA572EB10A5","classic_bike","2022-05-29 22:28:21","2022-05-29 23:29:08","Desplaines St & Jackson Blvd","15539","May St & Taylor St","13160",41.8781189009123,-87.6439476013184,41.8694821,-87.6554864,"casual"
"910B1DD11F6C1055","electric_bike","2022-05-15 00:02:24","2022-05-15 00:11:50","Broadway & Wilson - Truman College Vaccination Site","13074","","",41.9652346666667,-87.65843,41.95,-87.64,"member"
"FD2265611BE5CBB4","electric_bike","2022-05-01 14:18:42","2022-05-01 14:23:52","Larrabee St & Kingsbury St","TA1306000009","","",41.8976641666667,-87.6432543333333,41.89,-87.63,"casual"
"140855B054DFBFFD","classic_bike","2022-05-31 08:38:41","2022-05-31 08:51:23","Lincoln Ave & Addison St","TA1309000050","Racine Ave & Fullerton Ave","TA1306000026",41.946176,-87.673308,41.92556258,-87.65840426,"member"
"8159FBE5FCB8E11C","electric_bike","2022-05-12 11:49:28","2022-05-12 11:57:10","","","Racine Ave & Washington Blvd","654",41.88,-87.65,41.883073,-87.656952,"member"
"2E12DF35D7B765C9","classic_bike","2022-05-29 17:27:56","2022-05-29 17:48:40","Wells St & Hubbard St","TA1307000151","Racine Ave & Congress Pkwy","TA1306000025",41.889906,-87.634266,41.87464,-87.65703,"casual"
"8064D31E684C5A79","classic_bike","2022-05-12 18:15:57","2022-05-12 18:21:50","Orleans St & Merchandise Mart Plaza","TA1305000022","Kingsbury St & Erie St","13265",41.888243,-87.63639,41.8938080562436,-87.6416972279549,"casual"
"AC79E45C69114AE8","classic_bike","2022-05-26 21:08:47","2022-05-26 21:25:41","Dearborn St & Erie St","13045","Sheffield Ave & Fullerton Ave","TA1306000016",41.893992,-87.629318,41.9256018819,-87.6537080423,"member"
"E9867F698E3F2C2C","classic_bike","2022-05-30 14:04:47","2022-05-30 14:10:25","Aberdeen St & Monroe St","13156","Elizabeth (May) St & Fulton St","13197",41.880419,-87.655519,41.8866164860277,-87.6580399274826,"member"
"34FB252EFCFCB849","electric_bike","2022-05-27 23:08:49","2022-05-27 23:15:26","Leavitt St & Archer Ave","KA1503000068","","",41.8287001666667,-87.68069,41.82,-87.69,"casual"
"D6B38ED6866D3290","electric_bike","2022-05-04 16:29:30","2022-05-04 16:43:10","Fairbanks St & Superior St","18003","Financial Pl & Ida B Wells Dr","SL-010",41.895512,-87.6200773333333,41.8750236280333,-87.6330940425396,"member"
"2244563E8819346D","classic_bike","2022-05-17 07:45:42","2022-05-17 08:04:35","Western Ave & Division St","13241","Clark St & Randolph St","TA1305000030",41.902893,-87.687275,41.884576228,-87.63188991,"member"
"5F95A766BE8DD6FF","electric_bike","2022-05-11 20:14:42","2022-05-11 20:31:05","Dayton St & North Ave","13058","Wilton Ave & Belmont Ave","TA1307000134",41.9106758333333,-87.6494355,41.94018,-87.65304,"casual"
